id,lon,lat,name,ST,STATENAME,all_ela1922,all_ela1922_e,all_ela2019,all_ela2019_e,all_ela2022,all_ela2022_e,all_mth1922,all_mth1922_e,all_mth2019,all_mth2019_e,all_mth2022,all_mth2022_e,b_ela1922,b_ela1922_e,b_ela2019,b_ela2019_e,b_ela2022,b_ela2022_e,b_mth1922,b_mth1922_e,b_mth2019,b_mth2019_e,b_mth2022,b_mth2022_e,p_ela1922,p_ela1922_e,p_ela2019,p_ela2019_e,p_ela2022,p_ela2022_e,p_mth1922,p_mth1922_e,p_mth2019,p_mth2019_e,p_mth2022,p_mth2022_e,h_ela1922,h_ela1922_e,h_ela2019,h_ela2019_e,h_ela2022,h_ela2022_e,h_mth1922,h_mth1922_e,h_mth2019,h_mth2019_e,h_mth2022,h_mth2022_e,np_ela1922,np_ela1922_e,np_ela2019,np_ela2019_e,np_ela2022,np_ela2022_e,np_mth1922,np_mth1922_e,np_mth2019,np_mth2019_e,np_mth2022,np_mth2022_e,w_ela1922,w_ela1922_e,w_ela2019,w_ela2019_e,w_ela2022,w_ela2022_e,w_mth1922,w_mth1922_e,w_mth2019,w_mth2019_e,w_mth2022,w_mth2022_e,FIPST,perfrl,esser_per_student,pct_remote,instruct_per_student
0100005,-86.204,34.256,Albertville City,AL,ALABAMA,-0.237,0.285,-1.4,0.218,-1.64,0.216,-0.498,0.384,-1.26,0.292,-1.76,0.304,NA,NA,NA,NA,NA,NA,NA,NA,NA,NA,NA,NA,0.16,0.345,-2.48,0.277,-2.32,0.263,-0.254,0.386,-2,0.294,-2.25,0.317,0.203,0.376,-2.63,0.308,-2.42,0.245,-0.316,0.328,-1.85,0.256,-2.17,0.263,NA,NA,NA,NA,NA,NA,NA,NA,NA,NA,NA,NA,-1.16,0.35,0.163,0.259,-0.996,0.261,-0.907,0.444,-0.465,0.332,-1.37,0.337,01,0.65108335,2720.3423,0,4912.7749
0100006,-86.234,34.506,Marshall County,AL,ALABAMA,0.063,0.287,-1.61,0.216,-1.54,0.221,-0.139,0.387,-1.58,0.294,-1.72,0.308,NA,NA,NA,NA,NA,NA,NA,NA,NA,NA,NA,NA,-0.05,0.317,-2.15,0.236,-2.2,0.251,-0.193,0.379,-2.04,0.283,-2.23,0.313,0.682,0.395,-2.88,0.312,-2.2,0.297,0.02,0.361,-2.11,0.294,-2.09,0.297,NA,NA,NA,NA,NA,NA,NA,NA,NA,NA,NA,NA,-0.354,0.316,-1.06,0.227,-1.41,0.237,-0.246,0.432,-1.33,0.319,-1.57,0.329,01,0.70965737,3966.9434,0.075000003,5358.0845
0100007,-86.852,33.341,Hoover City,AL,ALABAMA,0.393,0.264,1.08,0.196,1.47,0.202,0.354,0.38,1,0.289,1.36,0.299,0.385,0.328,-0.764,0.251,-0.378,0.256,0.343,0.398,-0.983,0.299,-0.64,0.307,0.469,0.317,-1.22,0.243,-0.748,0.245,0.444,0.379,-1.17,0.289,-0.725,0.307,1.01,0.536,-1.42,0.501,-0.406,0.334,0.416,0.388,-0.717,0.332,-0.302,0.321,NA,NA,NA,NA,NA,NA,NA,NA,NA,NA,NA,NA,0.177,0.289,2.12,0.207,2.3,0.215,0.111,0.426,1.95,0.319,2.06,0.318,01,0.24677466,559.06714,0.050000001,7293.0088
0100008,-86.742,34.696,Madison City,AL,ALABAMA,-0.181,0.274,1.98,0.208,1.8,0.207,-0.027,0.384,1.46,0.294,1.43,0.301,-0.188,0.351,-0.162,0.273,-0.349,0.278,-0.149,0.416,-0.716,0.315,-0.865,0.325,-0.187,0.37,-0.378,0.27,-0.565,0.318,-0.095,0.414,-0.836,0.304,-0.931,0.363,0.199,0.506,0.332,0.415,0.532,0.432,-0.072,0.419,0.253,0.366,0.181,0.377,NA,NA,NA,NA,NA,NA,NA,NA,NA,NA,NA,NA,-0.35,0.303,2.64,0.228,2.29,0.217,-0.241,0.43,2.03,0.325,1.79,0.319,01,0.18777679,451.35211,0.125,5623.8564
0100011,-86.572,33.55,Leeds City,AL,ALABAMA,0.026,0.355,-1.1,0.286,-1.08,0.285,-0.137,0.419,-1.33,0.326,-1.46,0.342,NA,NA,NA,NA,NA,NA,NA,NA,NA,NA,NA,NA,0.246,0.419,-2.45,0.349,-2.2,0.359,-0.218,0.438,-2.29,0.347,-2.5,0.384,NA,NA,NA,NA,NA,NA,NA,NA,NA,NA,NA,NA,NA,NA,NA,NA,NA,NA,NA,NA,NA,NA,NA,NA,-0.579,0.441,0.081,0.332,-0.498,0.345,-0.335,0.488,-0.541,0.368,-0.876,0.379,01,0.45333332,1261.5679,0,5200.3853
0100012,-86.16,34.204,Boaz City,AL,ALABAMA,0.316,0.341,-1.13,0.272,-0.812,0.27,0.753,0.414,-1.27,0.321,-0.514,0.336,NA,NA,NA,NA,NA,NA,NA,NA,NA,NA,NA,NA,0.412,0.371,-1.91,0.293,-1.49,0.301,0.789,0.409,-1.79,0.317,-0.996,0.346,0.822,0.457,-2.83,0.378,-2,0.347,0.593,0.408,-2.08,0.359,-1.49,0.354,NA,NA,NA,NA,NA,NA,NA,NA,NA,NA,NA,NA,0.22,0.423,-0.005,0.32,0.215,0.325,0.973,0.477,-0.722,0.359,0.251,0.368,01,0.66913885,1758.1147,0,5254.0981
0100013,-86.569,33.685,Trussville City,AL,ALABAMA,0.117,0.291,1.52,0.222,1.64,0.225,0.143,0.39,1.04,0.3,1.19,0.308,NA,NA,NA,NA,NA,NA,NA,NA,NA,NA,NA,NA,NA,NA,NA,NA,NA,NA,NA,NA,NA,NA,NA,NA,NA,NA,NA,NA,NA,NA,NA,NA,NA,NA,NA,NA,NA,NA,NA,NA,NA,NA,NA,NA,NA,NA,NA,NA,0.132,0.312,1.73,0.229,1.86,0.23,0.124,0.431,1.27,0.324,1.4,0.323,01,0.076283827,0,0,5722.7866
0100030,-85.95,32.906,Alexander City,AL,ALABAMA,0.016,0.32,-1.38,0.248,-1.36,0.252,0.031,0.402,-1.23,0.307,-1.2,0.326,0.064,0.381,-2.61,0.309,-2.54,0.303,0.052,0.437,-2.28,0.328,-2.23,0.355,0.125,0.351,-2.32,0.272,-2.2,0.279,0.026,0.395,-1.94,0.299,-1.91,0.332,NA,NA,NA,NA,NA,NA,NA,NA,NA,NA,NA,NA,NA,NA,NA,NA,NA,NA,NA,NA,NA,NA,NA,NA,-0.075,0.398,-0.264,0.294,-0.339,0.305,0.175,0.469,-0.457,0.349,-0.281,0.363,01,0.60228384,2755.8079,0.27500001,5919.3018
0100060,-86.475,31.308,Andalusia City,AL,ALABAMA,0.099,0.368,-0.563,0.304,-0.464,0.296,0.802,0.434,-0.907,0.339,-0.105,0.361,NA,NA,NA,NA,NA,NA,NA,NA,NA,NA,NA,NA,0.214,0.414,-1.61,0.339,-1.4,0.355,0.664,0.445,-1.85,0.341,-1.18,0.402,NA,NA,NA,NA,NA,NA,NA,NA,NA,NA,NA,NA,NA,NA,NA,NA,NA,NA,NA,NA,NA,NA,NA,NA,-0.133,0.451,0.417,0.35,0.284,0.344,0.849,0.5,-0.077,0.381,0.772,0.389,01,0.58138239,2436.7695,0,5560.0869
0100090,-85.796,33.68,Anniston City,AL,ALABAMA,-0.101,0.364,-2.63,0.295,-2.73,0.295,-0.364,0.432,-2.98,0.333,-3.35,0.365,-0.043,0.383,-2.76,0.308,-2.81,0.31,-0.306,0.438,-3.13,0.325,-3.43,0.36,-0.031,0.383,-2.91,0.319,-2.94,0.301,-0.398,0.422,-3.16,0.33,-3.56,0.367,NA,NA,NA,NA,NA,NA,NA,NA,NA,NA,NA,NA,NA,NA,NA,NA,NA,NA,NA,NA,NA,NA,NA,NA,NA,NA,NA,NA,NA,NA,NA,NA,NA,NA,NA,NA,01,0.87106162,7483.231,0.1,6359.8306
0100100,-86.499,34.328,Arab City,AL,ALABAMA,-0.009,0.332,0.857,0.263,0.848,0.261,0.62,0.407,0.666,0.314,1.29,0.328,NA,NA,NA,NA,NA,NA,NA,NA,NA,NA,NA,NA,0.274,0.412,-0.422,0.338,-0.148,0.35,0.772,0.424,-0.493,0.334,0.279,0.363,NA,NA,NA,NA,NA,NA,NA,NA,NA,NA,NA,NA,NA,NA,NA,NA,NA,NA,NA,NA,NA,NA,NA,NA,-0.196,0.36,0.989,0.27,0.793,0.267,0.554,0.449,0.73,0.335,1.28,0.341,01,0.36208206,955.63611,0.050000001,5863.1304
0100120,-86.965,34.788,Athens City,AL,ALABAMA,0.255,0.309,-0.539,0.245,-0.284,0.234,0.105,0.399,-1.02,0.31,-0.915,0.316,0.272,0.433,-2.26,0.375,-1.99,0.355,0.06,0.496,-2.56,0.404,-2.5,0.403,0.378,0.366,-2.18,0.309,-1.8,0.271,0.113,0.399,-2.22,0.311,-2.1,0.328,0.55,0.517,-2.77,0.458,-2.22,0.374,0.282,0.41,-2.29,0.366,-2.01,0.35,NA,NA,NA,NA,NA,NA,NA,NA,NA,NA,NA,NA,-0.298,0.37,0.865,0.283,0.567,0.27,-0.166,0.461,-0.09,0.352,-0.257,0.345,01,0.47105509,1267.8939,0,6110.5439
0100180,-86.091,34.024,Attalla City,AL,ALABAMA,-0.367,0.363,-0.857,0.293,-1.22,0.297,-0.201,0.428,-1.4,0.341,-1.6,0.346,NA,NA,NA,NA,NA,NA,NA,NA,NA,NA,NA,NA,-0.269,0.398,-1.36,0.32,-1.63,0.337,-0.13,0.425,-1.78,0.339,-1.91,0.36,NA,NA,NA,NA,NA,NA,NA,NA,NA,NA,NA,NA,NA,NA,NA,NA,NA,NA,NA,NA,NA,NA,NA,NA,-0.717,0.439,-0.36,0.336,-1.08,0.34,-0.366,0.497,-1.06,0.383,-1.43,0.38,01,0.64547837,1759.2719,0,5991.9463
0100185,-88.084,30.809,Saraland City,AL,ALABAMA,0.396,0.315,0.977,0.242,1.37,0.249,0.642,0.408,0.962,0.32,1.6,0.324,NA,NA,NA,NA,NA,NA,NA,NA,NA,NA,NA,NA,0.11,0.369,-0.11,0.278,-0,0.311,0.474,0.417,-0.148,0.326,0.326,0.353,NA,NA,NA,NA,NA,NA,NA,NA,NA,NA,NA,NA,NA,NA,NA,NA,NA,NA,NA,NA,NA,NA,NA,NA,0.369,0.362,1.36,0.267,1.73,0.272,0.57,0.462,1.3,0.356,1.86,0.344,01,0.45375723,1096.5747,0,4706.4644
0100188,-88.085,30.768,Chickasaw City,AL,ALABAMA,0.541,0.403,-2.79,0.343,-2.25,0.352,-0.037,0.517,-3.04,0.389,-3.08,0.487,NA,NA,NA,NA,NA,NA,NA,NA,NA,NA,NA,NA,NA,NA,NA,NA,NA,NA,NA,NA,NA,NA,NA,NA,NA,NA,NA,NA,NA,NA,NA,NA,NA,NA,NA,NA,NA,NA,NA,NA,NA,NA,NA,NA,NA,NA,NA,NA,NA,NA,NA,NA,NA,NA,NA,NA,NA,NA,NA,NA,01,0.86317199,3242.1995,0,4153.897
0100189,-88.074,30.855,Satsuma City,AL,ALABAMA,-0.154,0.366,0.183,0.29,0.029,0.306,0.307,0.427,-0.486,0.333,-0.179,0.351,NA,NA,NA,NA,NA,NA,NA,NA,NA,NA,NA,NA,-0.135,0.441,-0.613,0.371,-0.748,0.399,0.267,0.457,-1.09,0.376,-0.821,0.403,NA,NA,NA,NA,NA,NA,NA,NA,NA,NA,NA,NA,NA,NA,NA,NA,NA,NA,NA,NA,NA,NA,NA,NA,-0.408,0.427,0.473,0.32,0.065,0.331,0.294,0.483,-0.332,0.364,-0.038,0.372,01,0.35877365,NA,0,4922.1104
0100190,-86.822,33.248,Alabaster City,AL,ALABAMA,0.344,0.284,-0.113,0.215,0.23,0.219,0.229,0.385,-0.472,0.294,-0.243,0.304,0.256,0.396,-1.06,0.311,-0.802,0.333,0.284,0.435,-1.5,0.333,-1.22,0.344,0.509,0.345,-1.4,0.259,-0.895,0.282,0.38,0.391,-1.5,0.296,-1.12,0.324,0.86,0.406,-1.91,0.319,-1.05,0.312,0.313,0.367,-1.53,0.302,-1.21,0.304,NA,NA,NA,NA,NA,NA,NA,NA,NA,NA,NA,NA,0.099,0.331,0.883,0.244,0.982,0.246,0.062,0.438,0.307,0.329,0.368,0.328,01,0.35656533,1029.9315,0,6056.0942
0100194,-86.807,33.286,Pelham City,AL,ALABAMA,0.197,0.316,0.001,0.245,0.197,0.247,0.09,0.398,-0.79,0.307,-0.7,0.316,0.437,0.449,-0.709,0.386,-0.272,0.395,0.355,0.493,-1.79,0.389,-1.43,0.407,0.193,0.39,-1.6,0.31,-1.41,0.328,0.097,0.414,-1.97,0.321,-1.88,0.351,0.569,0.471,-1.78,0.409,-1.21,0.343,0.113,0.384,-1.85,0.323,-1.73,0.322,NA,NA,NA,NA,NA,NA,NA,NA,NA,NA,NA,NA,-0.433,0.408,1.23,0.297,0.798,0.318,-0.296,0.469,0.121,0.359,-0.175,0.354,01,0.37235329,751.96216,0,5724.5049
0100195,-86.069,32.299,Pike Road City,AL,ALABAMA,0.633,0.335,-0.02,0.271,0.613,0.257,0.463,0.412,-0.845,0.33,-0.383,0.323,0.735,0.434,-1.49,0.386,-0.752,0.355,0.555,0.489,-2.4,0.407,-1.85,0.38,NA,NA,NA,NA,NA,NA,NA,NA,NA,NA,NA,NA,NA,NA,NA,NA,NA,NA,NA,NA,NA,NA,NA,NA,NA,NA,NA,NA,NA,NA,NA,NA,NA,NA,NA,NA,0.352,0.431,0.928,0.337,1.28,0.318,0.303,0.486,-0.094,0.388,0.209,0.355,01,0.13330157,657.46094,0,4190.3052
0100210,-85.477,32.598,Auburn City,AL,ALABAMA,0.215,0.279,1.04,0.21,1.26,0.214,-0.04,0.387,1.12,0.299,1.08,0.304,0.248,0.353,-1.55,0.275,-1.3,0.279,0.04,0.416,-1.43,0.313,-1.39,0.328,0.174,0.352,-1.58,0.284,-1.4,0.269,0.137,0.402,-1.44,0.325,-1.3,0.326,NA,NA,NA,NA,NA,NA,NA,NA,NA,NA,NA,NA,NA,NA,NA,NA,NA,NA,NA,NA,NA,NA,NA,NA,0.145,0.312,2.17,0.226,2.31,0.233,-0.225,0.434,1.99,0.329,1.76,0.322,01,0.26470587,808.08289,0.050000001,5736.5063
0100240,-86.567,32.552,Autauga County,AL,ALABAMA,-0.323,0.27,0.057,0.201,-0.266,0.206,-0.219,0.382,-0.452,0.291,-0.672,0.301,0.007,0.343,-1.7,0.266,-1.7,0.269,-0.108,0.41,-2.08,0.311,-2.18,0.319,-0.307,0.305,-1.21,0.226,-1.51,0.238,-0.162,0.374,-1.67,0.282,-1.83,0.304,NA,NA,NA,NA,NA,NA,NA,NA,NA,NA,NA,NA,NA,NA,NA,NA,NA,NA,NA,NA,NA,NA,NA,NA,-0.591,0.294,0.829,0.212,0.237,0.218,-0.324,0.424,0.181,0.317,-0.143,0.318,01,0.47492853,1809.0532,0,5085.7456
0100270,-87.696,30.635,Baldwin County,AL,ALABAMA,-0.046,0.245,0.215,0.18,0.169,0.186,-0.149,0.37,-0.122,0.279,-0.271,0.291,0.37,0.326,-2.21,0.254,-1.84,0.248,-0.058,0.394,-2.3,0.295,-2.36,0.304,0.077,0.264,-1.12,0.195,-1.04,0.199,-0.052,0.353,-1.35,0.265,-1.4,0.281,0.117,0.389,-1.71,0.307,-1.59,0.299,-0.346,0.339,-1.55,0.268,-1.89,0.274,NA,NA,NA,NA,NA,NA,NA,NA,NA,NA,NA,NA,-0.296,0.246,0.866,0.174,0.57,0.182,-0.334,0.405,0.448,0.298,0.114,0.303,01,0.40013015,1479.1823,0.075000003,6244.2979
0100330,-86.954,33.401,Bessemer City,AL,ALABAMA,-0.321,0.317,-2.95,0.248,-3.27,0.245,-0.619,0.408,-3.11,0.311,-3.72,0.331,-0.33,0.344,-2.98,0.268,-3.31,0.267,-0.698,0.418,-3.2,0.307,-3.9,0.335,-0.252,0.343,-3.31,0.279,-3.57,0.257,-0.685,0.398,-3.3,0.301,-3.99,0.333,NA,NA,NA,NA,NA,NA,NA,NA,NA,NA,NA,NA,NA,NA,NA,NA,NA,NA,NA,NA,NA,NA,NA,NA,NA,NA,NA,NA,NA,NA,NA,NA,NA,NA,NA,NA,01,0.86518425,4805.021,0.125,5592.5083
0100360,-87.1,33,Bibb County,AL,ALABAMA,-0.08,0.323,-1.66,0.251,-1.74,0.254,0.14,0.407,-2.15,0.315,-2.01,0.327,0.154,0.433,-3.18,0.373,-3.03,0.362,0.236,0.483,-3.45,0.388,-3.22,0.388,0.04,0.363,-2.32,0.277,-2.28,0.3,0.193,0.409,-2.73,0.315,-2.54,0.346,NA,NA,NA,NA,NA,NA,NA,NA,NA,NA,NA,NA,NA,NA,NA,NA,NA,NA,NA,NA,NA,NA,NA,NA,-0.24,0.375,-0.998,0.272,-1.24,0.288,0.184,0.46,-1.69,0.345,-1.51,0.352,01,0.63102597,2700.6233,0,5253.1606
0100390,-86.846,33.52,Birmingham City,AL,ALABAMA,-0.084,0.255,-2.98,0.188,-3.06,0.194,-0.467,0.379,-3.45,0.284,-3.92,0.302,-0.06,0.276,-2.98,0.204,-3.04,0.21,-0.458,0.374,-3.51,0.273,-3.97,0.291,-0.048,0.269,-3.42,0.201,-3.47,0.203,-0.571,0.363,-3.8,0.27,-4.37,0.295,0.079,0.419,-3.3,0.355,-3.22,0.297,-0.261,0.376,-3.15,0.306,-3.41,0.322,NA,NA,NA,NA,NA,NA,NA,NA,NA,NA,NA,NA,NA,NA,NA,NA,NA,NA,NA,NA,NA,NA,NA,NA,01,0.81405312,5239.4404,0.44999999,6186.1743
0100420,-86.468,34.101,Blount County,AL,ALABAMA,-0.06,0.272,-0.615,0.204,-0.675,0.208,0.072,0.381,-1.16,0.289,-1.08,0.3,NA,NA,NA,NA,NA,NA,NA,NA,NA,NA,NA,NA,0.045,0.309,-1.32,0.236,-1.28,0.236,0.059,0.37,-1.61,0.28,-1.55,0.299,0.616,0.421,-2.17,0.335,-1.56,0.323,0.056,0.368,-1.72,0.303,-1.67,0.304,NA,NA,NA,NA,NA,NA,NA,NA,NA,NA,NA,NA,-0.316,0.283,-0.309,0.204,-0.624,0.209,0.024,0.418,-1.05,0.31,-1.03,0.314,01,0.5235917,1682.8981,0,5307.3306
0100450,-87.066,31.117,Brewton City,AL,ALABAMA,-0.196,0.388,0.435,0.324,0.239,0.327,0.217,0.439,-0.23,0.35,-0.014,0.36,NA,NA,NA,NA,NA,NA,NA,NA,NA,NA,NA,NA,-0.269,0.442,-0.786,0.388,-1.06,0.384,0.391,0.454,-1.29,0.372,-0.9,0.399,NA,NA,NA,NA,NA,NA,NA,NA,NA,NA,NA,NA,NA,NA,NA,NA,NA,NA,NA,NA,NA,NA,NA,NA,-0.419,0.492,1.51,0.382,1.09,0.394,0.082,0.507,0.618,0.388,0.7,0.395,01,0.45366284,2822.5571,0,6130.6963
0100480,-85.706,32.087,Bullock County,AL,ALABAMA,-0,0.37,-3.39,0.313,-3.39,0.29,-0.366,0.439,-3.53,0.343,-3.9,0.368,0.028,0.394,-3.31,0.323,-3.28,0.317,-0.355,0.456,-3.75,0.348,-4.11,0.372,-0.017,0.39,-3.65,0.323,-3.67,0.313,-0.415,0.428,-3.79,0.34,-4.2,0.366,NA,NA,NA,NA,NA,NA,NA,NA,NA,NA,NA,NA,NA,NA,NA,NA,NA,NA,NA,NA,NA,NA,NA,NA,NA,NA,NA,NA,NA,NA,NA,NA,NA,NA,NA,NA,01,0.91403824,6188.0083,0.77499998,5252.9131
0100510,-86.692,31.748,Butler County,AL,ALABAMA,0.588,0.328,-2.33,0.266,-1.75,0.249,0.246,0.416,-2.83,0.327,-2.58,0.333,0.865,0.379,-3.18,0.317,-2.32,0.285,0.329,0.443,-3.54,0.348,-3.21,0.352,0.703,0.347,-2.71,0.282,-2.01,0.262,0.239,0.401,-3.1,0.314,-2.86,0.331,NA,NA,NA,NA,NA,NA,NA,NA,NA,NA,NA,NA,NA,NA,NA,NA,NA,NA,NA,NA,NA,NA,NA,NA,-0.076,0.453,-0.709,0.353,-0.784,0.344,0.024,0.513,-1.48,0.404,-1.45,0.39,01,0.70746267,3628.6375,0,5399.729
0100540,-85.936,33.774,Calhoun County,AL,ALABAMA,-0.121,0.271,-0.353,0.202,-0.474,0.208,0,0.379,-1.12,0.287,-1.12,0.3,0.047,0.401,-1.87,0.327,-1.82,0.328,-0.09,0.442,-2.48,0.335,-2.57,0.354,-0.081,0.299,-1.14,0.222,-1.23,0.232,0.031,0.366,-1.8,0.275,-1.77,0.296,NA,NA,NA,NA,NA,NA,NA,NA,NA,NA,NA,NA,NA,NA,NA,NA,NA,NA,NA,NA,NA,NA,NA,NA,-0.253,0.284,0.007,0.203,-0.245,0.211,-0.009,0.417,-0.841,0.308,-0.85,0.314,01,0.57007486,1823.4769,0,5347.2632
0100600,-85.415,32.93,Chambers County,AL,ALABAMA,-0.182,0.306,-1.3,0.233,-1.48,0.241,-0.426,0.4,-1.84,0.306,-2.26,0.322,-0.072,0.359,-2.14,0.277,-2.22,0.288,-0.359,0.421,-2.44,0.315,-2.8,0.334,-0.131,0.344,-2.04,0.278,-2.17,0.261,-0.418,0.397,-2.4,0.308,-2.82,0.328,NA,NA,NA,NA,NA,NA,NA,NA,NA,NA,NA,NA,NA,NA,NA,NA,NA,NA,NA,NA,NA,NA,NA,NA,-0.393,0.395,-0.373,0.287,-0.766,0.31,-0.432,0.477,-1.16,0.362,-1.59,0.366,01,0.69093806,3052.3101,0,5560.5059
0100630,-85.614,34.139,Cherokee County,AL,ALABAMA,0.581,0.302,-0.886,0.229,-0.306,0.235,0.095,0.395,-1.03,0.304,-0.937,0.314,NA,NA,NA,NA,NA,NA,NA,NA,NA,NA,NA,NA,0.522,0.336,-1.47,0.257,-0.95,0.266,0.124,0.389,-1.62,0.296,-1.49,0.321,NA,NA,NA,NA,NA,NA,NA,NA,NA,NA,NA,NA,NA,NA,NA,NA,NA,NA,NA,NA,NA,NA,NA,NA,0.606,0.321,-0.839,0.232,-0.233,0.239,0.072,0.435,-0.95,0.326,-0.878,0.328,01,0.62455517,1989.0845,0,5993.585
0100660,-86.693,32.888,Chilton County,AL,ALABAMA,-0.327,0.274,-1.28,0.205,-1.61,0.208,-0.24,0.382,-1.46,0.291,-1.7,0.301,-0.205,0.423,-2.91,0.355,-3.11,0.351,-0.181,0.473,-3.08,0.376,-3.26,0.381,-0.215,0.3,-1.9,0.222,-2.12,0.233,-0.167,0.371,-1.98,0.28,-2.15,0.302,0.229,0.399,-2.2,0.315,-1.97,0.298,-0.156,0.363,-1.7,0.297,-1.86,0.3,NA,NA,NA,NA,NA,NA,NA,NA,NA,NA,NA,NA,-0.514,0.297,-0.735,0.214,-1.25,0.22,-0.289,0.426,-1.1,0.317,-1.39,0.319,01,0.61145848,1907.0995,0,5166.2622
0100690,-88.27,32.135,Choctaw County,AL,ALABAMA,0.252,0.387,-2.49,0.318,-2.24,0.33,-0.083,0.453,-2.96,0.363,-3.05,0.383,0.376,0.431,-2.81,0.359,-2.44,0.372,-0.219,0.493,-3.16,0.39,-3.38,0.41,0.238,0.419,-2.76,0.354,-2.52,0.354,-0.208,0.45,-3.03,0.359,-3.24,0.402,NA,NA,NA,NA,NA,NA,NA,NA,NA,NA,NA,NA,NA,NA,NA,NA,NA,NA,NA,NA,NA,NA,NA,NA,NA,NA,NA,NA,NA,NA,NA,NA,NA,NA,NA,NA,01,0.84959561,4780.9155,0.25,5139.2915
0100720,-87.775,31.628,Clarke County,AL,ALABAMA,-0.298,0.337,-1.38,0.265,-1.68,0.269,-0.619,0.414,-1.68,0.317,-2.3,0.34,-0.212,0.375,-2.21,0.3,-2.42,0.299,-0.601,0.432,-2.25,0.322,-2.85,0.349,-0.1,0.379,-2.39,0.317,-2.49,0.294,-0.518,0.415,-2.43,0.326,-2.95,0.352,NA,NA,NA,NA,NA,NA,NA,NA,NA,NA,NA,NA,NA,NA,NA,NA,NA,NA,NA,NA,NA,NA,NA,NA,-0.394,0.495,0.302,0.381,-0.092,0.397,-0.445,0.532,-0.521,0.41,-0.966,0.42,01,0.77381188,4329.248,0.050000001,5613.8867
0100750,-85.816,33.27,Clay County,AL,ALABAMA,0.099,0.349,-1.12,0.272,-1.02,0.286,-0.053,0.42,-1.34,0.323,-1.39,0.346,NA,NA,NA,NA,NA,NA,NA,NA,NA,NA,NA,NA,0.014,0.384,-1.66,0.302,-1.65,0.32,-0.105,0.415,-1.8,0.321,-1.91,0.355,NA,NA,NA,NA,NA,NA,NA,NA,NA,NA,NA,NA,NA,NA,NA,NA,NA,NA,NA,NA,NA,NA,NA,NA,0.003,0.419,-0.647,0.304,-0.645,0.332,0.023,0.477,-1.01,0.357,-0.985,0.374,01,0.65952891,2414.7708,0,5528.8042
0100780,-85.489,33.646,Cleburne County,AL,ALABAMA,0.14,0.326,-0.287,0.258,-0.147,0.254,-0.024,0.403,-0.823,0.313,-0.847,0.321,NA,NA,NA,NA,NA,NA,NA,NA,NA,NA,NA,NA,0.091,0.371,-0.995,0.292,-0.904,0.303,0.1,0.404,-1.39,0.312,-1.29,0.339,NA,NA,NA,NA,NA,NA,NA,NA,NA,NA,NA,NA,NA,NA,NA,NA,NA,NA,NA,NA,NA,NA,NA,NA,0.058,0.356,-0.122,0.269,-0.064,0.261,-0.058,0.446,-0.72,0.337,-0.778,0.336,01,0.54100317,1819.4171,0,5502.9541
0100810,-85.943,31.519,Coffee County,AL,ALABAMA,0.217,0.326,-0.507,0.256,-0.29,0.257,0.236,0.412,-0.9,0.324,-0.664,0.329,NA,NA,NA,NA,NA,NA,NA,NA,NA,NA,NA,NA,0.018,0.37,-1.18,0.288,-1.16,0.304,0.167,0.414,-1.55,0.324,-1.38,0.347,NA,NA,NA,NA,NA,NA,NA,NA,NA,NA,NA,NA,NA,NA,NA,NA,NA,NA,NA,NA,NA,NA,NA,NA,0.281,0.361,-0.284,0.269,-0.002,0.27,0.286,0.46,-0.689,0.351,-0.403,0.346,01,0.56407034,2542.4395,0,5026.7529
0100840,-87.994,34.703,Colbert County,AL,ALABAMA,0.023,0.331,-1.29,0.26,-1.27,0.262,0.149,0.408,-1.77,0.315,-1.62,0.328,NA,NA,NA,NA,NA,NA,NA,NA,NA,NA,NA,NA,-0.031,0.354,-1.77,0.275,-1.8,0.285,0.112,0.397,-2.15,0.305,-2.04,0.329,NA,NA,NA,NA,NA,NA,NA,NA,NA,NA,NA,NA,NA,NA,NA,NA,NA,NA,NA,NA,NA,NA,NA,NA,-0.182,0.379,-0.938,0.284,-1.12,0.282,0.138,0.458,-1.56,0.343,-1.42,0.349,01,0.67016494,2333.8647,0,6234.9263
0100870,-87.008,31.439,Conecuh County,AL,ALABAMA,0.28,0.369,-2.2,0.298,-1.92,0.306,-0.209,0.436,-2.12,0.345,-2.33,0.36,0.222,0.4,-2.41,0.318,-2.18,0.335,-0.213,0.454,-2.26,0.351,-2.48,0.364,0.238,0.405,-2.54,0.346,-2.3,0.327,-0.249,0.427,-2.26,0.344,-2.51,0.36,NA,NA,NA,NA,NA,NA,NA,NA,NA,NA,NA,NA,NA,NA,NA,NA,NA,NA,NA,NA,NA,NA,NA,NA,NA,NA,NA,NA,NA,NA,NA,NA,NA,NA,NA,NA,01,0.70873123,4475.5229,0.22499999,5754.9873
0100900,-86.227,32.928,Coosa County,AL,ALABAMA,-0.123,0.413,-1.66,0.35,-1.78,0.366,-0.265,0.462,-2.29,0.37,-2.55,0.393,NA,NA,NA,NA,NA,NA,NA,NA,NA,NA,NA,NA,NA,NA,NA,NA,NA,NA,NA,NA,NA,NA,NA,NA,NA,NA,NA,NA,NA,NA,NA,NA,NA,NA,NA,NA,NA,NA,NA,NA,NA,NA,NA,NA,NA,NA,NA,NA,NA,NA,NA,NA,NA,NA,NA,NA,NA,NA,NA,NA,01,0.75444305,3908.6021,0.47499999,6079.3452
0100930,-86.399,31.139,Covington County,AL,ALABAMA,0.118,0.316,-0.35,0.244,-0.233,0.249,0.491,0.402,-0.792,0.31,-0.301,0.322,NA,NA,NA,NA,NA,NA,NA,NA,NA,NA,NA,NA,0.023,0.352,-0.964,0.271,-0.941,0.284,0.478,0.399,-1.37,0.304,-0.895,0.335,NA,NA,NA,NA,NA,NA,NA,NA,NA,NA,NA,NA,NA,NA,NA,NA,NA,NA,NA,NA,NA,NA,NA,NA,0.02,0.345,-0.2,0.254,-0.179,0.257,0.557,0.443,-0.712,0.333,-0.155,0.335,01,0.52230328,2261.356,0,5855.6938
0100960,-86.305,31.694,Crenshaw County,AL,ALABAMA,-0.318,0.329,-1.23,0.251,-1.55,0.265,-0.075,0.412,-1.36,0.317,-1.44,0.335,0.009,0.421,-2.13,0.341,-2.12,0.361,-0.226,0.481,-2.08,0.376,-2.31,0.394,-0.189,0.377,-1.97,0.312,-2.16,0.295,-0.078,0.416,-1.98,0.335,-2.05,0.343,NA,NA,NA,NA,NA,NA,NA,NA,NA,NA,NA,NA,NA,NA,NA,NA,NA,NA,NA,NA,NA,NA,NA,NA,-0.597,0.398,-0.661,0.287,-1.26,0.311,0.063,0.477,-1.05,0.361,-0.988,0.366,01,0.67008513,2522.4895,0.050000001,5579.3687
0100990,-86.842,34.17,Cullman City,AL,ALABAMA,0.385,0.317,1.03,0.24,1.42,0.253,0.406,0.406,0.787,0.314,1.19,0.325,NA,NA,NA,NA,NA,NA,NA,NA,NA,NA,NA,NA,0.339,0.41,-0.497,0.335,-0.158,0.35,0.515,0.433,-0.582,0.342,-0.067,0.375,NA,NA,NA,NA,NA,NA,NA,NA,NA,NA,NA,NA,NA,NA,NA,NA,NA,NA,NA,NA,NA,NA,NA,NA,0.198,0.347,1.26,0.25,1.46,0.263,0.278,0.453,0.939,0.342,1.22,0.341,01,0.32958451,1454.9617,0.050000001,6345.8979
0101020,-86.973,34.043,Cullman County,AL,ALABAMA,0.056,0.266,-0.482,0.197,-0.427,0.204,-0.071,0.379,-0.615,0.288,-0.686,0.298,NA,NA,NA,NA,NA,NA,NA,NA,NA,NA,NA,NA,0.182,0.3,-1.18,0.219,-0.995,0.236,0.084,0.369,-1.26,0.277,-1.17,0.299,0.581,0.476,-1.71,0.327,-1.13,0.423,-0.194,0.388,-1.13,0.325,-1.32,0.33,NA,NA,NA,NA,NA,NA,NA,NA,NA,NA,NA,NA,-0.13,0.275,-0.267,0.197,-0.397,0.203,-0.159,0.416,-0.491,0.308,-0.65,0.312,01,0.55386567,1892.2225,0,5932.9341
0101050,-85.504,31.531,Dale County,AL,ALABAMA,-0.156,0.313,-0.097,0.237,-0.253,0.249,0.036,0.404,-0.054,0.309,-0.018,0.328,-0.191,0.445,-1.97,0.364,-2.16,0.394,-0.182,0.497,-1.9,0.384,-2.08,0.423,-0.095,0.355,-0.942,0.27,-1.04,0.291,0.07,0.402,-0.882,0.301,-0.813,0.343,NA,NA,NA,NA,NA,NA,NA,NA,NA,NA,NA,NA,NA,NA,NA,NA,NA,NA,NA,NA,NA,NA,NA,NA,-0.21,0.353,0.459,0.257,0.249,0.268,0.055,0.456,0.46,0.341,0.516,0.349,01,0.60112888,1546.0258,0,5610.3101
0101080,-85.737,31.261,Daleville City,AL,ALABAMA,0.072,0.407,-1.7,0.356,-1.63,0.342,0.326,0.446,-2.48,0.36,-2.15,0.369,NA,NA,NA,NA,NA,NA,NA,NA,NA,NA,NA,NA,NA,NA,NA,NA,NA,NA,NA,NA,NA,NA,NA,NA,NA,NA,NA,NA,NA,NA,NA,NA,NA,NA,NA,NA,NA,NA,NA,NA,NA,NA,NA,NA,NA,NA,NA,NA,NA,NA,NA,NA,NA,NA,NA,NA,NA,NA,NA,NA,01,0.71021158,NA,0,5080.5605
0101110,-87.082,32.216,Dallas County,AL,ALABAMA,-0.652,0.32,-2.31,0.245,-2.96,0.256,-0.94,0.415,-2.4,0.312,-3.34,0.344,-0.472,0.354,-2.8,0.275,-3.27,0.281,-0.885,0.426,-2.75,0.312,-3.64,0.343,-0.6,0.345,-2.76,0.27,-3.36,0.273,-0.892,0.4,-2.82,0.302,-3.71,0.337,NA,NA,NA,NA,NA,NA,NA,NA,NA,NA,NA,NA,NA,NA,NA,NA,NA,NA,NA,NA,NA,NA,NA,NA,-0.791,0.515,-0.686,0.352,-1.48,0.454,-0.979,0.57,-1.13,0.417,-2.11,0.485,01,0.8349508,NA,0,6042.7085
0101140,-85.949,34.345,Dekalb County,AL,ALABAMA,0.32,0.274,-1.84,0.208,-1.52,0.207,0.204,0.381,-1.83,0.289,-1.63,0.3,NA,NA,NA,NA,NA,NA,NA,NA,NA,NA,NA,NA,0.398,0.299,-2.4,0.231,-2.01,0.224,0.298,0.368,-2.35,0.279,-2.05,0.295,1.02,0.375,-3.97,0.311,-2.94,0.252,0.145,0.342,-2.72,0.272,-2.58,0.276,NA,NA,NA,NA,NA,NA,NA,NA,NA,NA,NA,NA,-0.53,0.308,-1.02,0.223,-1.55,0.229,-0.067,0.429,-1.58,0.319,-1.65,0.324,01,0.66901928,2962.4189,0,5684.1636
0101170,-86.989,34.572,Decatur City,AL,ALABAMA,-0.179,0.276,-1.23,0.208,-1.41,0.211,-0.295,0.383,-0.959,0.29,-1.25,0.304,-0.131,0.341,-2.14,0.261,-2.27,0.272,-0.348,0.407,-1.92,0.3,-2.27,0.323,-0.02,0.298,-2.09,0.228,-2.11,0.226,-0.231,0.368,-1.7,0.278,-1.93,0.297,0.399,0.382,-2.73,0.312,-2.33,0.264,-0.072,0.344,-1.9,0.274,-1.97,0.276,NA,NA,NA,NA,NA,NA,NA,NA,NA,NA,NA,NA,-1.65,0.361,0.812,0.259,-0.843,0.276,-1.21,0.455,0.588,0.337,-0.626,0.35,01,0.64385521,2268.9348,0.15000001,6883.7368
0101200,-87.83,32.498,Demopolis City,AL,ALABAMA,0.265,0.35,-1.25,0.273,-0.989,0.287,0.589,0.422,-1.59,0.327,-0.999,0.348,0.557,0.414,-2.6,0.33,-2.05,0.353,0.563,0.454,-2.64,0.344,-2.08,0.37,0.119,0.384,-2.32,0.302,-2.21,0.32,0.339,0.412,-2.43,0.318,-2.09,0.349,NA,NA,NA,NA,NA,NA,NA,NA,NA,NA,NA,NA,NA,NA,NA,NA,NA,NA,NA,NA,NA,NA,NA,NA,-0.072,0.461,0.342,0.338,0.269,0.372,0.663,0.517,-0.436,0.395,0.227,0.406,01,0.57457918,2606.4795,0,5690.9658
0101230,-85.398,31.225,Dothan City,AL,ALABAMA,-0.22,0.276,-1.17,0.207,-1.39,0.211,-0.534,0.388,-1.67,0.296,-2.2,0.307,0.034,0.309,-2.52,0.236,-2.49,0.235,-0.313,0.391,-2.92,0.292,-3.23,0.303,-0.035,0.293,-2.27,0.221,-2.3,0.222,-0.384,0.371,-2.66,0.281,-3.05,0.3,NA,NA,NA,NA,NA,NA,NA,NA,NA,NA,NA,NA,NA,NA,NA,NA,NA,NA,NA,NA,NA,NA,NA,NA,-0.846,0.356,1.28,0.246,0.434,0.281,-0.992,0.464,0.671,0.353,-0.321,0.351,01,0.67079294,2893.1475,0.075000003,5896.4487
0101290,-86.146,32.609,Elmore County,AL,ALABAMA,0.091,0.261,-0.25,0.193,-0.159,0.2,0.022,0.376,-0.729,0.285,-0.707,0.296,0.07,0.326,-1.61,0.251,-1.54,0.251,-0.228,0.394,-1.83,0.296,-2.05,0.304,0.131,0.29,-1.2,0.213,-1.07,0.224,0.01,0.364,-1.51,0.274,-1.5,0.292,NA,NA,NA,NA,NA,NA,NA,NA,NA,NA,NA,NA,NA,NA,NA,NA,NA,NA,NA,NA,NA,NA,NA,NA,0.09,0.276,0.355,0.195,0.444,0.207,0.107,0.414,-0.222,0.306,-0.116,0.311,01,0.48946032,1549.1104,0.125,5289.0889
0101320,-85.85,31.324,Enterprise City,AL,ALABAMA,0.126,0.285,0.263,0.214,0.389,0.22,0.354,0.387,-0.038,0.295,0.316,0.307,0.093,0.381,-1.39,0.302,-1.3,0.312,0.364,0.432,-1.68,0.328,-1.32,0.342,0.151,0.329,-1.35,0.252,-1.2,0.258,0.351,0.384,-1.4,0.293,-1.05,0.314,0.058,0.541,-1.35,0.533,-1.3,0.378,0.106,0.406,-0.992,0.359,-0.886,0.348,NA,NA,NA,NA,NA,NA,NA,NA,NA,NA,NA,NA,0.108,0.325,1.2,0.235,1.31,0.243,0.429,0.436,0.706,0.325,1.13,0.329,01,0.40413505,1218.3038,0,5035.0928
0101350,-86.893,31.13,Escambia County,AL,ALABAMA,-0.278,0.298,-1.03,0.225,-1.31,0.232,-0.55,0.397,-1.43,0.301,-1.98,0.32,-0.341,0.368,-2.14,0.294,-2.48,0.292,-0.721,0.436,-2.42,0.325,-3.14,0.352,-0.132,0.33,-1.69,0.258,-1.82,0.252,-0.546,0.388,-2.01,0.3,-2.56,0.316,NA,NA,NA,NA,NA,NA,NA,NA,NA,NA,NA,NA,NA,NA,NA,NA,NA,NA,NA,NA,NA,NA,NA,NA,-0.358,0.356,-0.1,0.258,-0.458,0.271,-0.461,0.456,-0.64,0.339,-1.1,0.351,01,0.76615739,3841.4937,0,5848.6592
0101380,-86.193,34.075,Etowah County,AL,ALABAMA,0.068,0.267,-0.103,0.199,-0.034,0.204,-0.045,0.379,-0.89,0.287,-0.935,0.299,NA,NA,NA,NA,NA,NA,NA,NA,NA,NA,NA,NA,0.135,0.3,-0.858,0.225,-0.723,0.23,0.034,0.369,-1.51,0.279,-1.47,0.298,NA,NA,NA,NA,NA,NA,NA,NA,NA,NA,NA,NA,NA,NA,NA,NA,NA,NA,NA,NA,NA,NA,NA,NA,0.04,0.274,0.023,0.196,0.063,0.202,-0.062,0.414,-0.805,0.305,-0.867,0.311,01,0.47737449,2097.1113,0.025,5209.5425
0101410,-85.172,31.88,Eufaula City,AL,ALABAMA,0.311,0.322,-2.32,0.278,-2.01,0.219,-0.208,0.405,-2.65,0.325,-2.86,0.31,0.535,0.387,-3.34,0.345,-2.81,0.264,0.001,0.437,-3.6,0.349,-3.6,0.332,0.303,0.361,-3.08,0.319,-2.78,0.245,-0.316,0.401,-3.15,0.323,-3.47,0.32,NA,NA,NA,NA,NA,NA,NA,NA,NA,NA,NA,NA,NA,NA,NA,NA,NA,NA,NA,NA,NA,NA,NA,NA,-0.761,0.409,-0.421,0.349,-1.18,0.257,-0.783,0.488,-1.29,0.402,-2.07,0.336,01,0.56440026,2449.1831,0.15000001,2919.6492
0101440,-86.919,33.472,Fairfield City,AL,ALABAMA,-0.072,0.355,-2.86,0.288,-2.93,0.285,-0.427,0.438,-3.16,0.348,-3.59,0.36,-0.08,0.375,-2.89,0.299,-2.97,0.299,-0.404,0.446,-3.25,0.344,-3.65,0.355,-0.05,0.382,-3.05,0.309,-3.1,0.31,-0.442,0.423,-3.24,0.338,-3.68,0.355,NA,NA,NA,NA,NA,NA,NA,NA,NA,NA,NA,NA,NA,NA,NA,NA,NA,NA,NA,NA,NA,NA,NA,NA,NA,NA,NA,NA,NA,NA,NA,NA,NA,NA,NA,NA,01,0.77900934,3389.7419,0.075000003,5796.8271
0101470,-87.788,33.682,Fayette County,AL,ALABAMA,0.077,0.338,-0.815,0.26,-0.737,0.276,0.191,0.416,-1.52,0.324,-1.33,0.337,NA,NA,NA,NA,NA,NA,NA,NA,NA,NA,NA,NA,0.111,0.377,-1.5,0.299,-1.39,0.308,0.195,0.421,-2.09,0.327,-1.89,0.36,NA,NA,NA,NA,NA,NA,NA,NA,NA,NA,NA,NA,NA,NA,NA,NA,NA,NA,NA,NA,NA,NA,NA,NA,0.118,0.383,-0.452,0.276,-0.334,0.295,0.23,0.467,-1.2,0.354,-0.974,0.355,01,0.58514333,2543.0225,0,5631.3901
0101530,-87.665,34.826,Florence City,AL,ALABAMA,-0.06,0.31,-0.433,0.236,-0.493,0.244,-0.052,0.4,-0.234,0.307,-0.287,0.321,-0.068,0.381,-2.22,0.304,-2.29,0.309,-0.269,0.439,-1.61,0.33,-1.88,0.354,-0.03,0.348,-1.85,0.271,-1.87,0.272,-0.047,0.396,-1.38,0.307,-1.43,0.328,NA,NA,NA,NA,NA,NA,NA,NA,NA,NA,NA,NA,NA,NA,NA,NA,NA,NA,NA,NA,NA,NA,NA,NA,-0.443,0.403,1.17,0.302,0.722,0.308,-0.183,0.484,0.923,0.373,0.74,0.366,01,0.59755713,2258.6387,0,6914.8081
0101560,-85.7,34.455,Fort Payne City,AL,ALABAMA,0.554,0.318,-1.02,0.244,-0.468,0.252,0.438,0.403,-0.98,0.307,-0.542,0.326,NA,NA,NA,NA,NA,NA,NA,NA,NA,NA,NA,NA,0.681,0.347,-2,0.267,-1.32,0.279,0.378,0.395,-1.7,0.3,-1.32,0.331,0.849,0.423,-2.67,0.352,-1.82,0.323,0.343,0.373,-2.01,0.304,-1.67,0.315,NA,NA,NA,NA,NA,NA,NA,NA,NA,NA,NA,NA,0.312,0.384,0.225,0.275,0.537,0.301,0.568,0.473,-0.238,0.353,0.331,0.364,01,0.62819332,1912.1652,0,5332.9395
0101590,-88.019,34.446,Franklin County,AL,ALABAMA,-0.077,0.308,-1.42,0.238,-1.49,0.238,0.205,0.401,-1.79,0.311,-1.59,0.319,NA,NA,NA,NA,NA,NA,NA,NA,NA,NA,NA,NA,0.118,0.371,-1.8,0.306,-1.68,0.287,0.293,0.415,-2.19,0.339,-1.89,0.336,NA,NA,NA,NA,NA,NA,NA,NA,NA,NA,NA,NA,NA,NA,NA,NA,NA,NA,NA,NA,NA,NA,NA,NA,-0.272,0.336,-1.11,0.248,-1.38,0.249,0.247,0.447,-1.68,0.337,-1.43,0.336,01,0.70552456,2233.9053,0,5990.2012
0101620,-86.036,34.024,Gadsden City,AL,ALABAMA,-0.245,0.3,-1.16,0.224,-1.41,0.236,-0.231,0.395,-1.51,0.3,-1.74,0.317,-0.187,0.343,-1.77,0.259,-1.96,0.275,-0.277,0.411,-2.16,0.306,-2.44,0.323,-0.22,0.316,-1.91,0.234,-2.13,0.25,-0.201,0.378,-2.13,0.286,-2.33,0.309,0.012,0.453,-2.95,0.364,-2.94,0.357,-0.125,0.408,-2.56,0.368,-2.68,0.345,NA,NA,NA,NA,NA,NA,NA,NA,NA,NA,NA,NA,-0.243,0.447,0.444,0.343,0.201,0.335,0.173,0.509,-0.316,0.401,-0.142,0.38,01,0.6469003,4224.7715,0.075000003,5899.3721
0101640,-85.883,31.053,Geneva City,AL,ALABAMA,-0.027,0.379,-0.238,0.303,-0.265,0.323,0.278,0.447,-0.568,0.36,-0.29,0.373,NA,NA,NA,NA,NA,NA,NA,NA,NA,NA,NA,NA,-0.207,0.441,-1.13,0.369,-1.33,0.397,0.182,0.462,-1.47,0.375,-1.29,0.416,NA,NA,NA,NA,NA,NA,NA,NA,NA,NA,NA,NA,NA,NA,NA,NA,NA,NA,NA,NA,NA,NA,NA,NA,-0.049,0.451,0.129,0.339,0.08,0.355,0.287,0.509,-0.137,0.389,0.15,0.397,01,0.46997598,3275.9346,0,5867.5078
0101660,-85.675,31.095,Geneva County,AL,ALABAMA,0.204,0.324,-0.374,0.253,-0.17,0.254,0.033,0.406,-0.681,0.317,-0.648,0.324,NA,NA,NA,NA,NA,NA,NA,NA,NA,NA,NA,NA,0.252,0.354,-0.937,0.282,-0.685,0.276,0.102,0.398,-1.2,0.31,-1.1,0.327,NA,NA,NA,NA,NA,NA,NA,NA,NA,NA,NA,NA,NA,NA,NA,NA,NA,NA,NA,NA,NA,NA,NA,NA,0.095,0.368,-0.11,0.274,-0.014,0.275,-0.05,0.46,-0.432,0.351,-0.482,0.345,01,0.62654543,3543.7947,0,5556.8643
0101680,-87.971,32.907,Greene County,AL,ALABAMA,-0.013,0.402,-3.22,0.348,-3.24,0.336,-0.408,0.477,-3.73,0.381,-4.13,0.427,0.098,0.422,-3.26,0.358,-3.16,0.347,-0.471,0.489,-3.63,0.37,-4.1,0.423,-0.016,0.43,-3.45,0.385,-3.46,0.349,-0.555,0.465,-3.75,0.377,-4.3,0.433,NA,NA,NA,NA,NA,NA,NA,NA,NA,NA,NA,NA,NA,NA,NA,NA,NA,NA,NA,NA,NA,NA,NA,NA,NA,NA,NA,NA,NA,NA,NA,NA,NA,NA,NA,NA,01,0.92651653,7367.6138,0.47499999,6369.5654
0101690,-86.312,34.346,Guntersville City,AL,ALABAMA,0.139,0.354,0.121,0.279,0.26,0.291,0.229,0.423,-0.369,0.33,-0.14,0.345,NA,NA,NA,NA,NA,NA,NA,NA,NA,NA,NA,NA,0.255,0.409,-1.14,0.326,-0.89,0.354,0.229,0.433,-1.39,0.338,-1.16,0.38,NA,NA,NA,NA,NA,NA,NA,NA,NA,NA,NA,NA,NA,NA,NA,NA,NA,NA,NA,NA,NA,NA,NA,NA,0.074,0.421,0.573,0.311,0.647,0.329,0.197,0.484,0.002,0.366,0.199,0.372,01,0.45002672,1666.3422,0,5924.9863
0101710,-87.64,32.788,Hale County,AL,ALABAMA,-0.112,0.331,-1.64,0.253,-1.75,0.269,-0.309,0.412,-2.16,0.313,-2.47,0.337,0.084,0.37,-2.33,0.295,-2.24,0.296,-0.252,0.428,-2.65,0.32,-2.91,0.342,-0.011,0.357,-2.09,0.273,-2.1,0.294,-0.279,0.406,-2.46,0.304,-2.73,0.347,NA,NA,NA,NA,NA,NA,NA,NA,NA,NA,NA,NA,NA,NA,NA,NA,NA,NA,NA,NA,NA,NA,NA,NA,-0.371,0.499,-0.223,0.342,-0.593,0.434,-0.226,0.527,-1.09,0.392,-1.31,0.428,01,0.75,3340.8152,0.050000001,5376.4658
0101720,-87.575,34.231,Haleyville City,AL,ALABAMA,0.478,0.359,-1.31,0.288,-0.832,0.293,0.39,0.431,-0.918,0.341,-0.528,0.353,NA,NA,NA,NA,NA,NA,NA,NA,NA,NA,NA,NA,0.51,0.403,-2,0.321,-1.49,0.344,0.525,0.433,-1.55,0.342,-1.02,0.376,NA,NA,NA,NA,NA,NA,NA,NA,NA,NA,NA,NA,NA,NA,NA,NA,NA,NA,NA,NA,NA,NA,NA,NA,0.347,0.419,-1.15,0.316,-0.801,0.32,0.266,0.488,-0.79,0.372,-0.524,0.374,01,0.583076,2291.1567,0,6379.1821
0101730,-86.94,34.429,Hartselle City,AL,ALABAMA,-0.042,0.319,0.922,0.249,0.88,0.248,0.218,0.402,0.303,0.314,0.522,0.318,NA,NA,NA,NA,NA,NA,NA,NA,NA,NA,NA,NA,0.069,0.424,-0.651,0.345,-0.581,0.373,0.315,0.442,-1.36,0.349,-1.05,0.391,NA,NA,NA,NA,NA,NA,NA,NA,NA,NA,NA,NA,NA,NA,NA,NA,NA,NA,NA,NA,NA,NA,NA,NA,-0.17,0.345,1.19,0.257,1.02,0.254,0.111,0.445,0.536,0.339,0.647,0.332,01,0.24041511,629.61011,0,5421.7109
0101740,-85.239,31.525,Henry County,AL,ALABAMA,0.251,0.326,-0.92,0.249,-0.668,0.262,0.429,0.408,-1.84,0.314,-1.42,0.331,0.176,0.427,-2.38,0.352,-2.2,0.371,0.396,0.469,-3.06,0.377,-2.66,0.369,0.013,0.373,-1.88,0.293,-1.86,0.305,0.099,0.407,-2.53,0.316,-2.43,0.34,NA,NA,NA,NA,NA,NA,NA,NA,NA,NA,NA,NA,NA,NA,NA,NA,NA,NA,NA,NA,NA,NA,NA,NA,0.133,0.383,-0.14,0.274,-0.006,0.3,0.503,0.467,-1.29,0.348,-0.787,0.363,01,0.56650448,2378.2354,0.1,5123.8135
0101760,-86.796,33.473,Homewood City,AL,ALABAMA,0.022,0.318,1.65,0.254,1.67,0.242,-0.048,0.407,1.45,0.323,1.4,0.32,NA,NA,NA,NA,NA,NA,NA,NA,NA,NA,NA,NA,0.301,0.422,-1.44,0.333,-1.14,0.379,-0.124,0.446,-1.07,0.348,-1.19,0.397,0.585,0.525,-1.54,0.444,-0.958,0.452,0.038,0.426,-0.597,0.362,-0.559,0.391,NA,NA,NA,NA,NA,NA,NA,NA,NA,NA,NA,NA,-0.546,0.369,2.82,0.286,2.27,0.262,-0.521,0.473,2.39,0.378,1.87,0.34,01,0.22250699,553.01563,0,7601.8496
0101770,-85.203,31.115,Houston County,AL,ALABAMA,0.018,0.277,-0.212,0.207,-0.194,0.213,0.318,0.386,-0.066,0.295,0.252,0.305,0.125,0.388,-1.75,0.309,-1.62,0.319,0.098,0.443,-1.32,0.351,-1.22,0.342,-0.169,0.305,-0.893,0.229,-1.06,0.236,0.232,0.374,-0.764,0.286,-0.532,0.302,NA,NA,NA,NA,NA,NA,NA,NA,NA,NA,NA,NA,NA,NA,NA,NA,NA,NA,NA,NA,NA,NA,NA,NA,-0.104,0.297,0.212,0.214,0.108,0.221,0.35,0.429,0.261,0.319,0.611,0.323,01,0.57416642,1786.6364,0,5284.3032
0101800,-86.615,34.778,Huntsville City,AL,ALABAMA,-0.005,0.253,-0.827,0.187,-0.832,0.19,-0.205,0.374,-1.44,0.282,-1.64,0.294,0.126,0.29,-2.56,0.217,-2.43,0.22,-0.251,0.377,-3.01,0.278,-3.26,0.292,-0.108,0.278,-2.56,0.208,-2.67,0.209,-0.438,0.363,-2.91,0.272,-3.35,0.293,0.335,0.411,-2.54,0.335,-2.2,0.276,-0.055,0.34,-2.53,0.269,-2.59,0.276,NA,NA,NA,NA,NA,NA,NA,NA,NA,NA,NA,NA,-0.842,0.285,1.5,0.205,0.659,0.21,-0.639,0.419,0.537,0.312,-0.102,0.314,01,0.48429638,2475.6428,0.22499999,5662.8843
0101830,-85.85,34.819,Jackson County,AL,ALABAMA,0.014,0.288,-0.659,0.216,-0.645,0.224,0.044,0.391,-0.884,0.299,-0.839,0.311,NA,NA,NA,NA,NA,NA,NA,NA,NA,NA,NA,NA,-0.031,0.324,-1.18,0.254,-1.21,0.246,0.24,0.386,-1.56,0.3,-1.32,0.311,NA,NA,NA,NA,NA,NA,NA,NA,NA,NA,NA,NA,NA,NA,NA,NA,NA,NA,NA,NA,NA,NA,NA,NA,-0.158,0.318,-0.651,0.229,-0.808,0.238,0.028,0.438,-0.998,0.327,-0.97,0.331,01,0.64534223,2143.8027,0,5435.0425
0101860,-85.761,33.814,Jacksonville City,AL,ALABAMA,0.176,0.373,0.679,0.301,0.855,0.312,-0.367,0.428,-0.195,0.336,-0.562,0.35,0.22,0.455,-0.793,0.38,-0.573,0.412,-0.328,0.496,-1.45,0.388,-1.78,0.415,0.097,0.438,-0.492,0.357,-0.396,0.398,-0.24,0.449,-1.24,0.354,-1.48,0.404,NA,NA,NA,NA,NA,NA,NA,NA,NA,NA,NA,NA,NA,NA,NA,NA,NA,NA,NA,NA,NA,NA,NA,NA,0.038,0.484,1.54,0.377,1.58,0.382,-0.531,0.506,0.538,0.393,0.006,0.389,01,0.49876696,NA,0.043847486,5638.8042
0101890,-87.281,33.838,Jasper City,AL,ALABAMA,0.191,0.337,-0.065,0.267,0.126,0.266,0.208,0.411,-0.728,0.32,-0.52,0.33,NA,NA,NA,NA,NA,NA,NA,NA,NA,NA,NA,NA,0.247,0.389,-1.53,0.311,-1.29,0.322,0.152,0.421,-1.93,0.328,-1.78,0.361,NA,NA,NA,NA,NA,NA,NA,NA,NA,NA,NA,NA,NA,NA,NA,NA,NA,NA,NA,NA,NA,NA,NA,NA,0.195,0.39,0.851,0.291,1.05,0.294,0.263,0.465,0.038,0.355,0.301,0.35,01,0.45352215,1818.094,0.30000001,6159.4731
0101920,-86.812,33.731,Jefferson County,AL,ALABAMA,-0.082,0.243,-1.58,0.178,-1.66,0.183,-0.106,0.37,-2.17,0.279,-2.28,0.29,-0.121,0.272,-2.28,0.2,-2.4,0.206,-0.155,0.366,-2.93,0.27,-3.09,0.281,0.003,0.257,-2.41,0.189,-2.4,0.193,-0.119,0.351,-2.83,0.263,-2.94,0.28,0.558,0.324,-2.83,0.251,-2.27,0.231,0.06,0.322,-2.52,0.251,-2.46,0.255,NA,NA,NA,NA,NA,NA,NA,NA,NA,NA,NA,NA,-0.497,0.256,-0.217,0.181,-0.714,0.19,-0.22,0.408,-1.03,0.3,-1.25,0.307,01,0.58530599,1827.4519,0.25,5329.4922
0101950,-88.101,33.684,Lamar County,AL,ALABAMA,0.086,0.336,-0.876,0.254,-0.79,0.277,0.526,0.418,-0.841,0.321,-0.315,0.344,NA,NA,NA,NA,NA,NA,NA,NA,NA,NA,NA,NA,-0.028,0.378,-1.46,0.29,-1.48,0.318,0.474,0.42,-1.47,0.318,-0.998,0.365,NA,NA,NA,NA,NA,NA,NA,NA,NA,NA,NA,NA,NA,NA,NA,NA,NA,NA,NA,NA,NA,NA,NA,NA,0.141,0.375,-0.692,0.262,-0.551,0.298,0.623,0.468,-0.692,0.349,-0.069,0.361,01,0.59170306,2038.4163,0,5074.1709
0101980,-85.202,32.864,Lanett City,AL,ALABAMA,-0.151,0.399,-2.63,0.338,-2.78,0.339,-0.181,0.46,-2.71,0.391,-2.89,0.374,-0.181,0.423,-2.48,0.351,-2.66,0.358,-0.09,0.476,-2.76,0.398,-2.85,0.365,-0.055,0.412,-2.66,0.348,-2.71,0.341,-0.153,0.438,-2.75,0.369,-2.9,0.366,NA,NA,NA,NA,NA,NA,NA,NA,NA,NA,NA,NA,NA,NA,NA,NA,NA,NA,NA,NA,NA,NA,NA,NA,NA,NA,NA,NA,NA,NA,NA,NA,NA,NA,NA,NA,01,0.93191361,4871.957,0.22499999,5838.4053
0102010,-87.824,34.886,Lauderdale County,AL,ALABAMA,-0.24,0.269,-0.098,0.2,-0.338,0.207,-0.046,0.38,-0.528,0.289,-0.574,0.3,NA,NA,NA,NA,NA,NA,NA,NA,NA,NA,NA,NA,-0.16,0.307,-0.97,0.23,-1.13,0.239,0.077,0.373,-1.28,0.285,-1.2,0.301,NA,NA,NA,NA,NA,NA,NA,NA,NA,NA,NA,NA,NA,NA,NA,NA,NA,NA,NA,NA,NA,NA,NA,NA,-0.321,0.274,-0.007,0.196,-0.328,0.203,-0.065,0.415,-0.458,0.307,-0.523,0.311,01,0.42912388,1180.8788,0,6178.064
0102040,-87.309,34.502,Lawrence County,AL,ALABAMA,-0.185,0.29,-1.07,0.217,-1.25,0.226,-0.137,0.389,-1.63,0.297,-1.77,0.309,NA,NA,NA,NA,NA,NA,NA,NA,NA,NA,NA,NA,-0.256,0.33,-1.74,0.254,-2,0.258,-0.185,0.385,-2.23,0.291,-2.41,0.318,NA,NA,NA,NA,NA,NA,NA,NA,NA,NA,NA,NA,NA,NA,NA,NA,NA,NA,NA,NA,NA,NA,NA,NA,-0.269,0.32,-0.9,0.23,-1.17,0.241,-0.085,0.433,-1.54,0.323,-1.63,0.327,01,0.59864372,2398.4014,0,5585.0151
0102070,-85.197,32.581,Lee County,AL,ALABAMA,0.087,0.267,-0.558,0.199,-0.471,0.203,0.091,0.379,-0.841,0.288,-0.75,0.298,0.181,0.36,-1.7,0.28,-1.52,0.29,-0.01,0.424,-1.82,0.317,-1.83,0.337,0.183,0.3,-1.43,0.222,-1.24,0.235,0.121,0.37,-1.57,0.278,-1.45,0.3,0.513,0.51,-1.33,0.446,-0.821,0.403,0.202,0.424,-1.18,0.395,-0.981,0.368,NA,NA,NA,NA,NA,NA,NA,NA,NA,NA,NA,NA,-0.012,0.285,-0.112,0.205,-0.123,0.211,0.079,0.419,-0.483,0.311,-0.404,0.314,01,0.51030058,2337.4033,0.1,5641.2495
0102100,-87.102,34.885,Limestone County,AL,ALABAMA,-0.285,0.263,-0.641,0.201,-0.926,0.194,-0.775,0.378,-1.06,0.288,-1.84,0.297,-0.394,0.395,-1.49,0.356,-1.88,0.27,-1.4,0.454,-2.03,0.365,-3.44,0.348,-0.169,0.292,-1.64,0.226,-1.81,0.216,-0.932,0.368,-1.91,0.279,-2.84,0.296,0.429,0.419,-2.19,0.351,-1.76,0.296,-0.262,0.376,-1.79,0.319,-2.05,0.305,NA,NA,NA,NA,NA,NA,NA,NA,NA,NA,NA,NA,-0.329,0.276,-0.266,0.206,-0.595,0.196,-0.579,0.416,-0.77,0.309,-1.35,0.311,01,0.5122503,1381.5293,0,4823.7637
0102160,-86.632,32.155,Lowndes County,AL,ALABAMA,-0.296,0.366,-2.87,0.303,-3.17,0.296,-0.971,0.441,-2.92,0.338,-3.89,0.373,-0.27,0.383,-2.93,0.306,-3.2,0.309,-0.997,0.449,-2.98,0.333,-3.98,0.37,-0.113,0.38,-3.2,0.316,-3.31,0.298,-0.803,0.433,-3.28,0.358,-4.08,0.363,NA,NA,NA,NA,NA,NA,NA,NA,NA,NA,NA,NA,NA,NA,NA,NA,NA,NA,NA,NA,NA,NA,NA,NA,NA,NA,NA,NA,NA,NA,NA,NA,NA,NA,NA,NA,01,0.95958453,NA,0.40000001,8195.9404
0102190,-85.668,32.396,Macon County,AL,ALABAMA,-0.535,0.355,-2.65,0.282,-3.19,0.291,-0.825,0.461,-3.13,0.361,-3.96,0.397,-0.534,0.375,-2.67,0.292,-3.2,0.307,-0.803,0.475,-3.16,0.351,-3.96,0.403,-0.579,0.386,-3.08,0.332,-3.66,0.292,-0.878,0.453,-3.46,0.361,-4.34,0.405,NA,NA,NA,NA,NA,NA,NA,NA,NA,NA,NA,NA,NA,NA,NA,NA,NA,NA,NA,NA,NA,NA,NA,NA,NA,NA,NA,NA,NA,NA,NA,NA,NA,NA,NA,NA,01,0.89068806,5573.4009,0.075000003,5937.1646
0102220,-86.438,34.9,Madison County,AL,ALABAMA,-0.068,0.252,0.39,0.186,0.323,0.19,-0.061,0.373,-0.042,0.282,-0.103,0.292,0.132,0.313,-0.805,0.238,-0.673,0.239,-0.033,0.388,-1.1,0.291,-1.14,0.297,-0.024,0.284,-0.977,0.209,-1,0.219,-0.057,0.362,-1.19,0.272,-1.24,0.291,0.37,0.454,-0.724,0.385,-0.354,0.337,0.116,0.384,-0.883,0.33,-0.767,0.316,NA,NA,NA,NA,NA,NA,NA,NA,NA,NA,NA,NA,-0.236,0.263,0.857,0.19,0.621,0.192,-0.157,0.411,0.361,0.304,0.204,0.307,01,0.36259362,1075.4277,0.25,5360.3037
0102250,-87.627,32.237,Marengo County,AL,ALABAMA,-0.22,0.407,-0.979,0.348,-1.2,0.354,-0.243,0.471,-0.99,0.388,-1.23,0.396,NA,NA,NA,NA,NA,NA,NA,NA,NA,NA,NA,NA,-0.353,0.429,-1.76,0.369,-2.11,0.369,-0.405,0.442,-1.75,0.368,-2.16,0.373,NA,NA,NA,NA,NA,NA,NA,NA,NA,NA,NA,NA,NA,NA,NA,NA,NA,NA,NA,NA,NA,NA,NA,NA,NA,NA,NA,NA,NA,NA,NA,NA,NA,NA,NA,NA,01,0.7305389,5645.0225,0,5877.2104
0102310,-87.851,34.15,Marion County,AL,ALABAMA,0.189,0.312,-0.273,0.233,-0.084,0.25,0.195,0.397,-0.78,0.305,-0.585,0.317,NA,NA,NA,NA,NA,NA,NA,NA,NA,NA,NA,NA,0.156,0.355,-0.794,0.264,-0.638,0.295,0.124,0.393,-1.22,0.299,-1.09,0.326,NA,NA,NA,NA,NA,NA,NA,NA,NA,NA,NA,NA,NA,NA,NA,NA,NA,NA,NA,NA,NA,NA,NA,NA,0.137,0.336,-0.192,0.237,-0.055,0.259,0.187,0.439,-0.703,0.329,-0.517,0.332,01,0.59672612,2798.8293,0,5918.9023
0102350,-86.909,33.456,Midfield City,AL,ALABAMA,-0.068,0.402,-3.27,0.36,-3.34,0.323,-0.585,0.454,-3.19,0.365,-3.78,0.378,-0.118,0.425,-3.35,0.373,-3.47,0.339,-0.617,0.468,-3.31,0.357,-3.92,0.385,-0.089,0.42,-3.45,0.372,-3.54,0.337,-0.619,0.448,-3.47,0.365,-4.08,0.389,NA,NA,NA,NA,NA,NA,NA,NA,NA,NA,NA,NA,NA,NA,NA,NA,NA,NA,NA,NA,NA,NA,NA,NA,NA,NA,NA,NA,NA,NA,NA,NA,NA,NA,NA,NA,01,0.82471621,3108.5894,0.47499999,6046.8291
0102370,-88.277,30.976,Mobile County,AL,ALABAMA,-0.048,0.24,-1.22,0.175,-1.27,0.181,-0.309,0.368,-1.4,0.277,-1.71,0.289,0.027,0.266,-2.18,0.195,-2.15,0.202,-0.383,0.363,-2.24,0.267,-2.63,0.277,-0.038,0.253,-2.14,0.185,-2.17,0.19,-0.371,0.349,-2.19,0.261,-2.56,0.277,0.086,0.407,-1.71,0.289,-1.63,0.333,-0.165,0.352,-1.75,0.285,-1.92,0.287,NA,NA,NA,NA,NA,NA,NA,NA,NA,NA,NA,NA,-0.176,0.247,-0.042,0.174,-0.218,0.182,-0.192,0.404,-0.456,0.297,-0.648,0.303,01,0.73663735,4209.5347,0.15000001,5302.4043
0102400,-87.347,31.606,Monroe County,AL,ALABAMA,-0.204,0.317,-1.98,0.245,-2.18,0.248,-0.029,0.401,-2.31,0.308,-2.34,0.322,-0.153,0.37,-2.94,0.295,-3.09,0.293,-0.112,0.429,-2.87,0.326,-2.98,0.339,-0.35,0.34,-2.64,0.264,-2.99,0.266,-0.176,0.39,-2.76,0.298,-2.94,0.322,NA,NA,NA,NA,NA,NA,NA,NA,NA,NA,NA,NA,NA,NA,NA,NA,NA,NA,NA,NA,NA,NA,NA,NA,-0.37,0.417,-0.764,0.306,-1.13,0.329,0.066,0.48,-1.65,0.366,-1.58,0.366,01,0.69985098,3123.2666,0.47499999,5729.6646
0102430,-86.184,32.092,Montgomery County,AL,ALABAMA,-0.148,0.249,-2.2,0.184,-2.35,0.188,-0.628,0.374,-2.7,0.282,-3.32,0.296,-0.128,0.271,-2.54,0.199,-2.67,0.205,-0.552,0.367,-3.06,0.269,-3.61,0.282,0.054,0.264,-3.14,0.197,-3.09,0.197,-0.526,0.357,-3.43,0.267,-3.95,0.286,0.566,0.412,-3.89,0.35,-3.32,0.283,-0.29,0.361,-3.27,0.286,-3.56,0.303,NA,NA,NA,NA,NA,NA,NA,NA,NA,NA,NA,NA,-1.82,0.414,1.44,0.316,-0.382,0.31,-1.42,0.485,0.192,0.375,-1.23,0.369,01,0.70910054,4843.7109,0.40000001,5771.1904
0102480,-86.712,34.434,Morgan County,AL,ALABAMA,-0.018,0.272,-0.676,0.203,-0.694,0.208,0.181,0.382,-0.995,0.29,-0.814,0.302,NA,NA,NA,NA,NA,NA,NA,NA,NA,NA,NA,NA,0.137,0.308,-1.57,0.231,-1.44,0.24,0.168,0.375,-1.69,0.282,-1.52,0.306,0.507,0.427,-2.65,0.337,-2.15,0.332,0,0.386,-1.94,0.323,-1.94,0.326,NA,NA,NA,NA,NA,NA,NA,NA,NA,NA,NA,NA,-0.19,0.283,-0.29,0.203,-0.48,0.21,0.209,0.42,-0.816,0.31,-0.606,0.316,01,0.4900977,1500.7136,0,5787.0273
0102490,-86.759,33.49,Mountain Brook City,AL,ALABAMA,0.2,0.308,2.53,0.242,2.73,0.236,0.278,0.404,2.39,0.321,2.67,0.315,NA,NA,NA,NA,NA,NA,NA,NA,NA,NA,NA,NA,NA,NA,NA,NA,NA,NA,NA,NA,NA,NA,NA,NA,NA,NA,NA,NA,NA,NA,NA,NA,NA,NA,NA,NA,NA,NA,NA,NA,NA,NA,NA,NA,NA,NA,NA,NA,0.162,0.324,2.55,0.24,2.71,0.238,0.102,0.445,2.49,0.342,2.59,0.327,01,0.00464406,0,0,8869.7051
0102520,-87.646,34.744,Muscle Shoals City,AL,ALABAMA,0.196,0.327,0.538,0.253,0.734,0.26,0.321,0.413,0.678,0.317,0.999,0.337,NA,NA,NA,NA,NA,NA,NA,NA,NA,NA,NA,NA,0.15,0.418,-0.959,0.34,-0.808,0.364,0.328,0.445,-0.638,0.341,-0.31,0.401,NA,NA,NA,NA,NA,NA,NA,NA,NA,NA,NA,NA,NA,NA,NA,NA,NA,NA,NA,NA,NA,NA,NA,NA,0.086,0.382,1.12,0.282,1.2,0.291,0.262,0.474,1.17,0.354,1.43,0.367,01,0.31294453,812.32922,0,6337.6943
0102550,-86.472,33.951,Oneonta City,AL,ALABAMA,0.463,0.364,-0.048,0.293,0.416,0.299,-0.06,0.428,-0.125,0.335,-0.184,0.352,NA,NA,NA,NA,NA,NA,NA,NA,NA,NA,NA,NA,0.444,0.438,-1.34,0.365,-0.891,0.393,-0.09,0.455,-1.17,0.361,-1.26,0.413,NA,NA,NA,NA,NA,NA,NA,NA,NA,NA,NA,NA,NA,NA,NA,NA,NA,NA,NA,NA,NA,NA,NA,NA,0.033,0.446,0.66,0.336,0.692,0.35,-0.32,0.499,0.332,0.378,0.012,0.389,01,0.40652028,980.22986,0,5448.9248
0102580,-85.363,32.642,Opelika City,AL,ALABAMA,-0.002,0.294,-0.889,0.226,-0.891,0.225,-0.027,0.394,-0.752,0.301,-0.779,0.314,-0.019,0.331,-1.74,0.255,-1.76,0.255,-0.167,0.403,-1.5,0.301,-1.66,0.315,-0.003,0.311,-1.81,0.24,-1.81,0.235,-0.09,0.378,-1.59,0.288,-1.68,0.307,0.416,0.55,-2.09,0.535,-1.67,0.413,0.174,0.429,-1.62,0.403,-1.45,0.374,NA,NA,NA,NA,NA,NA,NA,NA,NA,NA,NA,NA,-0.297,0.431,1.32,0.33,1.03,0.328,-0.185,0.506,1.2,0.401,1.02,0.384,01,0.67346036,2697.5542,0,6357.019
0102610,-86.254,31.278,Opp City,AL,ALABAMA,0.416,0.385,-0.687,0.321,-0.272,0.32,0.673,0.442,-1.27,0.355,-0.602,0.365,NA,NA,NA,NA,NA,NA,NA,NA,NA,NA,NA,NA,0.486,0.439,-1.6,0.374,-1.11,0.387,0.684,0.454,-2,0.369,-1.32,0.405,NA,NA,NA,NA,NA,NA,NA,NA,NA,NA,NA,NA,NA,NA,NA,NA,NA,NA,NA,NA,NA,NA,NA,NA,0.485,0.473,-0.248,0.362,0.237,0.372,0.769,0.515,-0.907,0.4,-0.138,0.397,01,0.56899226,3659.0527,0,5766.8193
0102635,-85.769,33.581,Oxford City,AL,ALABAMA,0.4,0.302,-0.185,0.229,0.215,0.237,0.233,0.396,-0.639,0.304,-0.406,0.316,0.312,0.39,-1.36,0.31,-1.05,0.319,0.082,0.445,-1.69,0.343,-1.61,0.353,0.441,0.34,-1.05,0.259,-0.61,0.272,0.154,0.392,-1.34,0.301,-1.19,0.323,1.17,0.502,-1.84,0.423,-0.669,0.406,0.273,0.42,-1.34,0.37,-1.06,0.376,NA,NA,NA,NA,NA,NA,NA,NA,NA,NA,NA,NA,-0.08,0.374,0.904,0.269,0.824,0.29,0.052,0.464,0.08,0.348,0.132,0.354,01,0.53881949,1556.2063,0.075000003,6396.7173
0102640,-85.633,31.426,Ozark City,AL,ALABAMA,0.121,0.345,-1.54,0.278,-1.42,0.271,0.233,0.419,-1.78,0.325,-1.54,0.342,0.263,0.396,-2.71,0.323,-2.44,0.32,0.414,0.445,-2.8,0.338,-2.39,0.36,0.194,0.372,-2.29,0.301,-2.1,0.296,0.194,0.41,-2.36,0.316,-2.17,0.349,NA,NA,NA,NA,NA,NA,NA,NA,NA,NA,NA,NA,NA,NA,NA,NA,NA,NA,NA,NA,NA,NA,NA,NA,-0.211,0.495,0.103,0.383,-0.109,0.396,0.117,0.532,-0.57,0.41,-0.453,0.422,01,0.68115258,3574.887,0.1,5486.8359
0102650,-86.306,33.578,Pell City,AL,ALABAMA,-0.063,0.299,-0.596,0.229,-0.659,0.23,-0.109,0.393,-1.02,0.302,-1.13,0.311,NA,NA,NA,NA,NA,NA,NA,NA,NA,NA,NA,NA,0,0.342,-1.49,0.268,-1.49,0.267,0.06,0.391,-1.84,0.301,-1.78,0.321,NA,NA,NA,NA,NA,NA,NA,NA,NA,NA,NA,NA,NA,NA,NA,NA,NA,NA,NA,NA,NA,NA,NA,NA,-0.069,0.323,-0.403,0.237,-0.472,0.237,-0.093,0.435,-0.833,0.327,-0.927,0.326,01,0.51333332,1861.2579,0,5229.0259
0102670,-87.298,32.658,Perry County,AL,ALABAMA,-0.757,0.382,-2.73,0.315,-3.49,0.321,-0.764,0.476,-3.15,0.404,-3.91,0.395,-0.679,0.401,-2.78,0.323,-3.46,0.331,-0.804,0.485,-3.13,0.395,-3.93,0.388,-0.689,0.408,-2.98,0.343,-3.67,0.337,-0.888,0.467,-3.34,0.398,-4.22,0.413,NA,NA,NA,NA,NA,NA,NA,NA,NA,NA,NA,NA,NA,NA,NA,NA,NA,NA,NA,NA,NA,NA,NA,NA,NA,NA,NA,NA,NA,NA,NA,NA,NA,NA,NA,NA,01,0.96583098,NA,0.872428,6571.3071
0102700,-85.019,32.483,Phenix City,AL,ALABAMA,-0.124,0.277,-0.748,0.208,-0.872,0.213,-0.218,0.385,-1.18,0.292,-1.4,0.306,0.009,0.312,-1.65,0.237,-1.64,0.24,-0.31,0.39,-1.87,0.289,-2.18,0.303,-0.029,0.301,-1.5,0.225,-1.53,0.232,-0.225,0.384,-1.76,0.302,-1.99,0.305,NA,NA,NA,NA,NA,NA,NA,NA,NA,NA,NA,NA,NA,NA,NA,NA,NA,NA,NA,NA,NA,NA,NA,NA,-0.455,0.381,0.943,0.275,0.487,0.295,-0.124,0.489,0.139,0.388,0.015,0.362,01,0.68723762,3001.4036,0,5234.6626
0102730,-88.072,33.3,Pickens County,AL,ALABAMA,-0.266,0.33,-1.53,0.254,-1.79,0.264,0.032,0.414,-2.56,0.311,-2.53,0.343,-0.234,0.378,-2.39,0.301,-2.62,0.302,-0.206,0.441,-3.24,0.329,-3.45,0.358,-0.238,0.355,-2.07,0.272,-2.31,0.288,-0.193,0.413,-2.92,0.301,-3.11,0.36,NA,NA,NA,NA,NA,NA,NA,NA,NA,NA,NA,NA,NA,NA,NA,NA,NA,NA,NA,NA,NA,NA,NA,NA,-0.356,0.465,-0.172,0.338,-0.529,0.381,0.835,0.499,-1.69,0.366,-0.855,0.4,01,0.69255149,3460.9744,0,5822.2134
0102760,-85.609,33.918,Piedmont City,AL,ALABAMA,0.406,0.395,-0.086,0.334,0.32,0.336,1.24,0.449,-0.012,0.356,1.23,0.377,NA,NA,NA,NA,NA,NA,NA,NA,NA,NA,NA,NA,0.353,0.448,-0.862,0.398,-0.508,0.393,1.27,0.451,-0.782,0.358,0.483,0.401,NA,NA,NA,NA,NA,NA,NA,NA,NA,NA,NA,NA,NA,NA,NA,NA,NA,NA,NA,NA,NA,NA,NA,NA,0.472,0.47,0.114,0.366,0.586,0.367,1.44,0.507,0.006,0.385,1.44,0.398,01,0.60990441,2583.9023,0,5728.4946
0102790,-85.818,31.719,Pike County,AL,ALABAMA,0.114,0.338,-1.21,0.268,-1.1,0.267,-0.184,0.416,-1.21,0.325,-1.4,0.337,0.157,0.401,-1.95,0.328,-1.79,0.327,-0.149,0.454,-1.91,0.354,-2.06,0.362,0.096,0.369,-1.92,0.307,-1.82,0.282,-0.217,0.415,-1.76,0.333,-1.97,0.344,NA,NA,NA,NA,NA,NA,NA,NA,NA,NA,NA,NA,NA,NA,NA,NA,NA,NA,NA,NA,NA,NA,NA,NA,-0.04,0.467,-0.342,0.37,-0.382,0.355,-0.15,0.518,-0.598,0.412,-0.748,0.395,01,0.83116907,3174.3997,0,5667.2686
0102820,-85.475,33.329,Randolph County,AL,ALABAMA,0.074,0.336,-1.27,0.253,-1.19,0.277,0.012,0.409,-1.79,0.315,-1.78,0.331,NA,NA,NA,NA,NA,NA,NA,NA,NA,NA,NA,NA,-0.09,0.375,-1.81,0.281,-1.9,0.32,-0.038,0.409,-2.23,0.308,-2.27,0.35,NA,NA,NA,NA,NA,NA,NA,NA,NA,NA,NA,NA,NA,NA,NA,NA,NA,NA,NA,NA,NA,NA,NA,NA,0.134,0.39,-0.916,0.275,-0.783,0.313,0.066,0.462,-1.49,0.345,-1.42,0.355,01,0.64675927,3052.6484,0,5691.6362
0102850,-85.372,33.145,Roanoke City,AL,ALABAMA,0.569,0.384,-1.75,0.328,-1.18,0.31,0.406,0.441,-1.75,0.355,-1.35,0.361,0.632,0.46,-2.99,0.412,-2.36,0.399,0.28,0.491,-2.75,0.403,-2.47,0.392,0.772,0.438,-2.69,0.398,-1.92,0.359,0.467,0.447,-2.43,0.38,-1.96,0.373,NA,NA,NA,NA,NA,NA,NA,NA,NA,NA,NA,NA,NA,NA,NA,NA,NA,NA,NA,NA,NA,NA,NA,NA,0.474,0.497,-0.848,0.397,-0.374,0.385,0.531,0.537,-1.03,0.429,-0.502,0.411,01,0.67352867,1936.106,0.125,5682.8779
0102880,-85.22,32.3,Russell County,AL,ALABAMA,0.065,0.307,-0.929,0.235,-0.864,0.239,-0.268,0.4,-1.21,0.307,-1.48,0.32,0.268,0.387,-1.62,0.311,-1.35,0.312,-0.178,0.437,-1.91,0.331,-2.08,0.349,0.14,0.342,-1.51,0.272,-1.37,0.264,-0.207,0.392,-1.71,0.303,-1.91,0.323,NA,NA,NA,NA,NA,NA,NA,NA,NA,NA,NA,NA,NA,NA,NA,NA,NA,NA,NA,NA,NA,NA,NA,NA,-0.094,0.39,-0.503,0.286,-0.596,0.3,-0.294,0.48,-0.734,0.368,-1.03,0.365,01,0.63366872,3353.9612,0,5195.4971
0102910,-87.731,34.507,Russellville City,AL,ALABAMA,0.408,0.362,-1.74,0.298,-1.33,0.285,0.389,0.414,-1.13,0.321,-0.741,0.337,NA,NA,NA,NA,NA,NA,NA,NA,NA,NA,NA,NA,0.464,0.405,-2.59,0.367,-2.13,0.29,0.251,0.415,-1.94,0.339,-1.69,0.339,0.863,0.454,-2.99,0.375,-2.12,0.332,0.414,0.372,-1.8,0.308,-1.39,0.312,NA,NA,NA,NA,NA,NA,NA,NA,NA,NA,NA,NA,-0.175,0.499,0.09,0.402,-0.085,0.38,0.212,0.527,-0.06,0.408,0.152,0.416,01,0.67028987,2640.9773,0,6012.5933000000005
0102940,-86.057,34.641,Scottsboro City,AL,ALABAMA,-0.429,0.336,0.273,0.265,-0.155,0.267,0.204,0.412,-0.743,0.317,-0.539,0.334,NA,NA,NA,NA,NA,NA,NA,NA,NA,NA,NA,NA,-0.461,0.388,-0.839,0.311,-1.3,0.321,0.063,0.417,-1.63,0.326,-1.57,0.353,NA,NA,NA,NA,NA,NA,NA,NA,NA,NA,NA,NA,NA,NA,NA,NA,NA,NA,NA,NA,NA,NA,NA,NA,-0.676,0.386,0.698,0.291,0.023,0.289,0.275,0.465,-0.572,0.347,-0.296,0.356,01,0.48675764,1617.8502,0,5764.5146
0102970,-87.035,32.422,Selma City,AL,ALABAMA,-0.189,0.327,-2.53,0.25,-2.72,0.262,-0.689,0.424,-2.75,0.315,-3.44,0.359,-0.167,0.346,-2.59,0.262,-2.76,0.275,-0.725,0.427,-2.77,0.305,-3.49,0.354,-0.138,0.342,-2.81,0.264,-2.94,0.271,-0.685,0.412,-2.95,0.305,-3.63,0.358,NA,NA,NA,NA,NA,NA,NA,NA,NA,NA,NA,NA,NA,NA,NA,NA,NA,NA,NA,NA,NA,NA,NA,NA,NA,NA,NA,NA,NA,NA,NA,NA,NA,NA,NA,NA,01,0.89309049,NA,0.75,6305.0493
0103000,-87.694,34.759,Sheffield City,AL,ALABAMA,-0.05,0.387,-1.47,0.325,-1.52,0.32,-0.074,0.443,-1.58,0.362,-1.66,0.357,NA,NA,NA,NA,NA,NA,NA,NA,NA,NA,NA,NA,-0.018,0.429,-2.04,0.389,-2.05,0.34,0.053,0.444,-2.11,0.384,-2.06,0.362,NA,NA,NA,NA,NA,NA,NA,NA,NA,NA,NA,NA,NA,NA,NA,NA,NA,NA,NA,NA,NA,NA,NA,NA,NA,NA,NA,NA,NA,NA,NA,NA,NA,NA,NA,NA,01,0.8094241,4025.8813,0,6485.0532
0103030,-86.507,33.382,Shelby County,AL,ALABAMA,0.172,0.25,0.263,0.183,0.436,0.19,0.144,0.372,-0.282,0.28,-0.137,0.292,0.124,0.32,-1.52,0.244,-1.39,0.247,0.033,0.39,-1.87,0.29,-1.84,0.302,0.148,0.283,-1.32,0.209,-1.17,0.217,0.032,0.361,-1.58,0.271,-1.55,0.29,0.634,0.378,-1.64,0.298,-1.01,0.279,0.038,0.35,-1.34,0.276,-1.3,0.287,NA,NA,NA,NA,NA,NA,NA,NA,NA,NA,NA,NA,0.031,0.254,0.895,0.18,0.926,0.189,0.1,0.407,0.199,0.299,0.299,0.306,01,0.32139036,760.70251,0.25,5719.499
0103062,-86.238,33.816,St Clair County,AL,ALABAMA,-0.125,0.265,-0.174,0.196,-0.299,0.203,-0.288,0.378,-0.604,0.286,-0.892,0.298,-0.176,0.407,-1.55,0.329,-1.72,0.341,-0.47,0.458,-1.77,0.356,-2.24,0.367,-0.003,0.3,-1.2,0.224,-1.2,0.233,-0.162,0.369,-1.55,0.277,-1.71,0.299,NA,NA,NA,NA,NA,NA,NA,NA,NA,NA,NA,NA,NA,NA,NA,NA,NA,NA,NA,NA,NA,NA,NA,NA,-0.155,0.273,0.093,0.195,-0.062,0.202,-0.294,0.414,-0.394,0.305,-0.688,0.311,01,0.44505495,1127.3956,0,5159.8506
0103090,-88.213,32.493,Sumter County,AL,ALABAMA,-0.069,0.406,-3.19,0.336,-3.26,0.359,-0.707,0.458,-3.48,0.365,-4.19,0.389,-0.018,0.423,-3.22,0.337,-3.24,0.369,-0.703,0.465,-3.47,0.354,-4.17,0.382,0.07,0.432,-3.44,0.365,-3.37,0.377,-0.715,0.45,-3.54,0.358,-4.26,0.403,NA,NA,NA,NA,NA,NA,NA,NA,NA,NA,NA,NA,NA,NA,NA,NA,NA,NA,NA,NA,NA,NA,NA,NA,NA,NA,NA,NA,NA,NA,NA,NA,NA,NA,NA,NA,01,0.90835553,6583.8633,0.52499998,6553.5566
0103120,-86.262,33.159,Sylacauga City,AL,ALABAMA,0.271,0.343,-1.12,0.271,-0.848,0.277,-0.336,0.416,-1.14,0.324,-1.48,0.338,0.307,0.406,-2.52,0.332,-2.21,0.335,-0.131,0.458,-2.5,0.353,-2.64,0.37,0.346,0.385,-2.05,0.304,-1.7,0.322,-0.153,0.417,-1.99,0.326,-2.14,0.352,NA,NA,NA,NA,NA,NA,NA,NA,NA,NA,NA,NA,NA,NA,NA,NA,NA,NA,NA,NA,NA,NA,NA,NA,0.07,0.448,0.164,0.328,0.234,0.36,-0.562,0.498,-0.013,0.381,-0.575,0.384,01,0.54487181,2242.4336,0,5939.4229
0103150,-86.086,33.434,Talladega City,AL,ALABAMA,-0.022,0.363,-2.16,0.308,-2.18,0.279,-0.327,0.444,-2.63,0.364,-2.96,0.359,0.268,0.408,-2.66,0.351,-2.39,0.311,-0.264,0.452,-2.88,0.362,-3.15,0.353,0.146,0.385,-2.51,0.328,-2.37,0.295,-0.396,0.428,-2.79,0.348,-3.19,0.358,NA,NA,NA,NA,NA,NA,NA,NA,NA,NA,NA,NA,NA,NA,NA,NA,NA,NA,NA,NA,NA,NA,NA,NA,NA,NA,NA,NA,NA,NA,NA,NA,NA,NA,NA,NA,01,0.82718545,4260.5176,0.075000003,6040.7622
0103180,-86.244,33.369,Talladega County,AL,ALABAMA,0.14,0.275,-0.986,0.204,-0.846,0.212,0.199,0.382,-1.46,0.289,-1.26,0.302,0.176,0.343,-2.08,0.263,-1.91,0.271,0.085,0.407,-2.39,0.301,-2.31,0.321,0.154,0.298,-1.54,0.22,-1.39,0.233,0.221,0.368,-1.92,0.276,-1.7,0.299,NA,NA,NA,NA,NA,NA,NA,NA,NA,NA,NA,NA,NA,NA,NA,NA,NA,NA,NA,NA,NA,NA,NA,NA,0.021,0.303,-0.365,0.215,-0.344,0.228,0.252,0.425,-0.974,0.314,-0.722,0.321,01,0.68464452,2106.031,0,5138.5244
0103210,-85.734,32.842,Tallapoosa County,AL,ALABAMA,0.124,0.321,-1.38,0.25,-1.26,0.251,0.419,0.407,-1.64,0.314,-1.22,0.329,0.105,0.417,-2.74,0.345,-2.64,0.353,0.294,0.476,-2.84,0.362,-2.55,0.398,0.04,0.357,-2.01,0.282,-1.97,0.281,0.343,0.403,-2.23,0.309,-1.89,0.338,NA,NA,NA,NA,NA,NA,NA,NA,NA,NA,NA,NA,NA,NA,NA,NA,NA,NA,NA,NA,NA,NA,NA,NA,0.081,0.368,-0.786,0.274,-0.705,0.275,0.596,0.464,-1.22,0.352,-0.626,0.352,01,0.55264997,2588.52,0.075000003,5589.1797
0103240,-85.945,32.507,Tallassee City,AL,ALABAMA,0.054,0.357,-0.947,0.284,-0.893,0.292,0.026,0.438,-1.09,0.341,-1.06,0.37,NA,NA,NA,NA,NA,NA,NA,NA,NA,NA,NA,NA,0.142,0.408,-1.81,0.323,-1.67,0.354,0.011,0.45,-2.02,0.346,-2.01,0.408,NA,NA,NA,NA,NA,NA,NA,NA,NA,NA,NA,NA,NA,NA,NA,NA,NA,NA,NA,NA,NA,NA,NA,NA,-0.006,0.448,-0.245,0.329,-0.251,0.359,0.191,0.517,-0.459,0.394,-0.268,0.407,01,0.5649972,1545.5006,0,6365.9116
0103270,-86.771,33.591,Tarrant City,AL,ALABAMA,-0.255,0.399,-3.52,0.359,-3.77,0.314,-0.43,0.468,-3.56,0.364,-3.99,0.41,NA,NA,NA,NA,NA,NA,NA,NA,NA,NA,NA,NA,-0.033,0.424,-3.46,0.397,-3.49,0.305,-0.547,0.464,-3.56,0.381,-4.11,0.414,NA,NA,NA,NA,NA,NA,NA,NA,NA,NA,NA,NA,NA,NA,NA,NA,NA,NA,NA,NA,NA,NA,NA,NA,NA,NA,NA,NA,NA,NA,NA,NA,NA,NA,NA,NA,01,0.86298162,4138.127,0.22499999,4876.2646
0103300,-87.742,31.913,Thomasville City,AL,ALABAMA,0.565,0.4,-1.25,0.326,-0.682,0.354,0.516,0.448,-2.18,0.348,-1.66,0.38,0.441,0.462,-2.04,0.393,-1.6,0.425,0.396,0.493,-2.74,0.373,-2.34,0.42,0.583,0.439,-1.84,0.355,-1.26,0.405,0.401,0.453,-2.56,0.347,-2.16,0.414,NA,NA,NA,NA,NA,NA,NA,NA,NA,NA,NA,NA,NA,NA,NA,NA,NA,NA,NA,NA,NA,NA,NA,NA,NA,NA,NA,NA,NA,NA,NA,NA,NA,NA,NA,NA,01,0.65371329,NA,0,5828.4482
0103330,-85.968,31.799,Troy City,AL,ALABAMA,-0.111,0.365,-1.09,0.295,-1.2,0.299,-0.268,0.425,-0.951,0.329,-1.22,0.352,-0.069,0.395,-2.24,0.321,-2.31,0.324,-0.26,0.432,-1.8,0.328,-2.06,0.343,-0.144,0.391,-2.13,0.318,-2.28,0.32,-0.347,0.413,-1.77,0.323,-2.12,0.349,NA,NA,NA,NA,NA,NA,NA,NA,NA,NA,NA,NA,NA,NA,NA,NA,NA,NA,NA,NA,NA,NA,NA,NA,NA,NA,NA,NA,NA,NA,NA,NA,NA,NA,NA,NA,01,0.60669911,5261.0522,0,6484.7974
0103360,-87.541,33.204,Tuscaloosa City,AL,ALABAMA,-0.148,0.27,-1.08,0.203,-1.23,0.205,-0.34,0.385,-1.46,0.293,-1.8,0.304,-0.057,0.292,-2.2,0.219,-2.25,0.222,-0.263,0.379,-2.59,0.281,-2.85,0.291,-0.145,0.292,-2.53,0.224,-2.68,0.217,-0.392,0.369,-2.8,0.282,-3.19,0.296,NA,NA,NA,NA,NA,NA,NA,NA,NA,NA,NA,NA,NA,NA,NA,NA,NA,NA,NA,NA,NA,NA,NA,NA,-0.519,0.369,2.27,0.275,1.75,0.278,-0.617,0.482,2,0.384,1.38,0.351,01,0.59816051,2576.26,0.15000001,6048.2129
0103390,-87.355,33.318,Tuscaloosa County,AL,ALABAMA,0.105,0.252,-0.988,0.186,-0.883,0.19,-0.118,0.373,-1.31,0.282,-1.43,0.293,0.317,0.302,-2.29,0.229,-1.97,0.229,-0.157,0.384,-2.55,0.284,-2.71,0.298,0.184,0.274,-2.12,0.206,-1.94,0.205,-0.18,0.359,-2.28,0.27,-2.46,0.287,0.801,0.434,-3.07,0.368,-2.27,0.3,0.323,0.357,-2.65,0.292,-2.33,0.284,NA,NA,NA,NA,NA,NA,NA,NA,NA,NA,NA,NA,-0.089,0.262,0.022,0.187,-0.067,0.194,-0.178,0.411,-0.44,0.303,-0.619,0.309,01,0.50152719,1595.3608,0.22499999,5441.5283
0103420,-87.697,34.728,Tuscumbia City,AL,ALABAMA,-0.346,0.363,-0.456,0.294,-0.803,0.296,0.139,0.427,-1.22,0.334,-1.08,0.35,NA,NA,NA,NA,NA,NA,NA,NA,NA,NA,NA,NA,-0.369,0.398,-1.44,0.331,-1.81,0.324,0.206,0.429,-2.05,0.339,-1.85,0.369,NA,NA,NA,NA,NA,NA,NA,NA,NA,NA,NA,NA,NA,NA,NA,NA,NA,NA,NA,NA,NA,NA,NA,NA,-0.593,0.447,0.398,0.347,-0.195,0.34,0.262,0.501,-0.718,0.387,-0.456,0.385,01,0.51804811,1469.4496,0,5809.0723
0103430,-86.793,33.43,Vestavia Hills City,AL,ALABAMA,0.218,0.284,2.33,0.217,2.55,0.216,0.469,0.39,1.9,0.301,2.37,0.308,NA,NA,NA,NA,NA,NA,NA,NA,NA,NA,NA,NA,NA,NA,NA,NA,NA,NA,NA,NA,NA,NA,NA,NA,NA,NA,NA,NA,NA,NA,NA,NA,NA,NA,NA,NA,NA,NA,NA,NA,NA,NA,NA,NA,NA,NA,NA,NA,0.175,0.295,2.43,0.217,2.61,0.215,0.336,0.428,2.01,0.321,2.34,0.32,01,0.07391911,0,0.125,7685.0215
0103450,-87.314,33.697,Walker County,AL,ALABAMA,-0.137,0.275,-0.835,0.204,-0.972,0.212,-0.106,0.381,-1.44,0.289,-1.55,0.301,NA,NA,NA,NA,NA,NA,NA,NA,NA,NA,NA,NA,-0.088,0.307,-1.43,0.226,-1.52,0.242,-0.11,0.372,-1.88,0.279,-1.99,0.304,NA,NA,NA,NA,NA,NA,NA,NA,NA,NA,NA,NA,NA,NA,NA,NA,NA,NA,NA,NA,NA,NA,NA,NA,-0.169,0.283,-0.69,0.202,-0.859,0.212,-0.073,0.417,-1.36,0.308,-1.43,0.314,01,0.57327646,2526.7847,0.125,5865.1895
0103480,-88.202,31.387,Washington County,AL,ALABAMA,-0.022,0.32,-0.922,0.246,-0.944,0.254,-0.135,0.403,-1.7,0.306,-1.84,0.326,-0.116,0.437,-2.15,0.373,-2.27,0.374,-0.585,0.488,-2.64,0.371,-3.22,0.412,-0.015,0.361,-1.6,0.278,-1.61,0.296,-0.22,0.404,-2.2,0.302,-2.42,0.346,NA,NA,NA,NA,NA,NA,NA,NA,NA,NA,NA,NA,NA,NA,NA,NA,NA,NA,NA,NA,NA,NA,NA,NA,0.04,0.38,-0.357,0.279,-0.317,0.29,0.147,0.456,-1.35,0.34,-1.2,0.349,01,0.61516869,2425.4399,0,5675.7065
0103510,-87.396,32.008,Wilcox County,AL,ALABAMA,0.071,0.385,-3.25,0.322,-3.18,0.32,-0.054,0.446,-3.61,0.363,-3.67,0.363,0.106,0.403,-3.3,0.326,-3.2,0.331,0.012,0.453,-3.66,0.357,-3.65,0.357,0.177,0.396,-3.53,0.331,-3.36,0.321,-0.07,0.432,-3.76,0.349,-3.83,0.365,NA,NA,NA,NA,NA,NA,NA,NA,NA,NA,NA,NA,NA,NA,NA,NA,NA,NA,NA,NA,NA,NA,NA,NA,NA,NA,NA,NA,NA,NA,NA,NA,NA,NA,NA,NA,01,0.96420205,6975.145,0.55000001,5910.7383
0103540,-87.841,33.894,Winfield City,AL,ALABAMA,0.159,0.378,-0.26,0.32,-0.101,0.305,0.351,0.441,-0.355,0.354,-0.004,0.361,NA,NA,NA,NA,NA,NA,NA,NA,NA,NA,NA,NA,NA,NA,NA,NA,NA,NA,NA,NA,NA,NA,NA,NA,NA,NA,NA,NA,NA,NA,NA,NA,NA,NA,NA,NA,NA,NA,NA,NA,NA,NA,NA,NA,NA,NA,NA,NA,0.194,0.432,-0.16,0.338,0.034,0.321,0.391,0.496,-0.286,0.385,0.104,0.378,01,0.44187838,1531.1014,0,6102.9873
0103580,-87.361,34.148,Winston County,AL,ALABAMA,-0.4,0.335,-0.888,0.265,-1.29,0.267,-0.124,0.41,-1.2,0.318,-1.32,0.329,NA,NA,NA,NA,NA,NA,NA,NA,NA,NA,NA,NA,-0.266,0.389,-1.56,0.306,-1.83,0.329,0.015,0.424,-1.77,0.329,-1.76,0.366,NA,NA,NA,NA,NA,NA,NA,NA,NA,NA,NA,NA,NA,NA,NA,NA,NA,NA,NA,NA,NA,NA,NA,NA,-0.52,0.365,-0.849,0.272,-1.37,0.274,-0.111,0.452,-1.21,0.34,-1.32,0.342,01,0.53263158,2462.7556,0,5595.9858
0400001,-111.875,33.813,Cave Creek Unified District,AZ,ARIZONA,-0.11,0.36,1.62,0.265,1.51,0.279,-0.345,0.494,1.61,0.369,1.27,0.391,NA,NA,NA,NA,NA,NA,NA,NA,NA,NA,NA,NA,NA,NA,NA,NA,NA,NA,NA,NA,NA,NA,NA,NA,NA,NA,NA,NA,NA,NA,NA,NA,NA,NA,NA,NA,NA,NA,NA,NA,NA,NA,NA,NA,NA,NA,NA,NA,-0.086,0.342,1.74,0.257,1.66,0.275,-0.332,0.438,1.79,0.325,1.45,0.352,04,0.073645242,797.82111,0,4080.4993
0400003,-112.415,34.84,Chino Valley Unified District,AZ,ARIZONA,-0.277,0.409,0.095,0.308,-0.182,0.324,-0.876,0.522,-0.172,0.387,-1.05,0.428,NA,NA,NA,NA,NA,NA,NA,NA,NA,NA,NA,NA,NA,NA,NA,NA,NA,NA,NA,NA,NA,NA,NA,NA,NA,NA,NA,NA,NA,NA,NA,NA,NA,NA,NA,NA,NA,NA,NA,NA,NA,NA,NA,NA,NA,NA,NA,NA,-0.197,0.412,0.445,0.325,0.248,0.357,-0.846,0.487,0.004,0.363,-0.842,0.411,04,0.54560953,1484.5709,0.27500001,3986.9087
0400212,-110.247,32.12,Benson Unified School District,AZ,ARIZONA,0.073,0.462,0.142,0.359,0.214,0.377,-0.583,0.554,0.457,0.43,-0.126,0.449,NA,NA,NA,NA,NA,NA,NA,NA,NA,NA,NA,NA,NA,NA,NA,NA,NA,NA,NA,NA,NA,NA,NA,NA,NA,NA,NA,NA,NA,NA,NA,NA,NA,NA,NA,NA,NA,NA,NA,NA,NA,NA,NA,NA,NA,NA,NA,NA,NA,NA,NA,NA,NA,NA,NA,NA,NA,NA,NA,NA,04,0.43763587,1975.5149,0,4404.1914
0400295,-114.148,35.698,Kingman Unified School District,AZ,ARIZONA,0.075,0.371,-1.5,0.275,-1.43,0.287,-0.289,0.502,-1.49,0.38,-1.78,0.395,NA,NA,NA,NA,NA,NA,NA,NA,NA,NA,NA,NA,NA,NA,NA,NA,NA,NA,NA,NA,NA,NA,NA,NA,0.297,0.447,-1.84,0.352,-1.55,0.383,-0.342,0.583,-1.8,0.468,-2.14,0.466,NA,NA,NA,NA,NA,NA,NA,NA,NA,NA,NA,NA,0.002,0.365,-1.26,0.277,-1.26,0.297,-0.342,0.456,-1.27,0.346,-1.61,0.366,04,0.63901883,2159.8008,0,3875.2114
0400600,-112.126,33.505,Alhambra Elementary District,AZ,ARIZONA,-0.084,0.348,-2.09,0.251,-2.17,0.27,-0.836,0.486,-1.57,0.361,-2.4,0.386,NA,NA,NA,NA,NA,NA,NA,NA,NA,NA,NA,NA,NA,NA,NA,NA,NA,NA,NA,NA,NA,NA,NA,NA,-0.083,0.301,-2.09,0.215,-2.17,0.239,-0.907,0.478,-1.55,0.348,-2.46,0.37,NA,NA,NA,NA,NA,NA,NA,NA,NA,NA,NA,NA,NA,NA,NA,NA,NA,NA,NA,NA,NA,NA,NA,NA,04,0.88654941,4927.0938,0.67500001,4929.6333
0400680,-110.964,32.447,Amphitheater Unified District,AZ,ARIZONA,0.064,0.339,0.012,0.247,0.076,0.261,-0.306,0.481,-0.101,0.359,-0.407,0.378,NA,NA,NA,NA,NA,NA,NA,NA,NA,NA,NA,NA,NA,NA,NA,NA,NA,NA,NA,NA,NA,NA,NA,NA,-0.016,0.317,-0.889,0.23,-0.905,0.253,-0.387,0.489,-1.14,0.359,-1.52,0.379,NA,NA,NA,NA,NA,NA,NA,NA,NA,NA,NA,NA,0.151,0.339,1.26,0.254,1.41,0.271,-0.118,0.432,1.15,0.321,1.03,0.345,04,0.45049441,2169.5518,0.15000001,4799.1797
0400790,-111.392,33.379,Apache Junction Unified District,AZ,ARIZONA,-0.349,0.427,-1.6,0.309,-1.95,0.355,-0.976,0.541,-1.34,0.39,-2.31,0.463,NA,NA,NA,NA,NA,NA,NA,NA,NA,NA,NA,NA,NA,NA,NA,NA,NA,NA,NA,NA,NA,NA,NA,NA,-0.134,0.468,-2.13,0.367,-2.26,0.41,-0.715,0.582,-1.86,0.45,-2.58,0.464,NA,NA,NA,NA,NA,NA,NA,NA,NA,NA,NA,NA,-0.201,0.431,-1.18,0.337,-1.39,0.39,-1.06,0.514,-1.03,0.367,-2.09,0.462,04,0.60041285,3531.7446,0.69999999,4264.1333
0400960,-112.388,33.428,Avondale Elementary District,AZ,ARIZONA,0.177,0.351,-0.663,0.258,-0.487,0.271,-0.469,0.487,-0.121,0.365,-0.589,0.383,NA,NA,NA,NA,NA,NA,NA,NA,NA,NA,NA,NA,NA,NA,NA,NA,NA,NA,NA,NA,NA,NA,NA,NA,0.171,0.318,-0.998,0.233,-0.827,0.251,-0.492,0.484,-0.393,0.358,-0.885,0.371,NA,NA,NA,NA,NA,NA,NA,NA,NA,NA,NA,NA,0.031,0.415,0.693,0.334,0.724,0.355,-0.521,0.496,1.14,0.388,0.616,0.407,04,0.65098315,1857.7744,0.25,4325.9067
0401050,-111.977,33.461,Balsz Elementary District,AZ,ARIZONA,-0.224,0.42,-1.97,0.297,-2.19,0.349,-0.953,0.546,-1.79,0.415,-2.75,0.467,NA,NA,NA,NA,NA,NA,NA,NA,NA,NA,NA,NA,NA,NA,NA,NA,NA,NA,NA,NA,NA,NA,NA,NA,-0.344,0.428,-1.95,0.296,-2.3,0.388,-1.01,0.577,-1.68,0.428,-2.69,0.495,NA,NA,NA,NA,NA,NA,NA,NA,NA,NA,NA,NA,NA,NA,NA,NA,NA,NA,NA,NA,NA,NA,NA,NA,04,0.97057682,6526.6899,0.67500001,4834.8623
0401380,-112.598,33.203,Buckeye Elementary District,AZ,ARIZONA,0.466,0.358,-1.71,0.265,-1.24,0.274,0.125,0.493,-1.74,0.373,-1.62,0.387,NA,NA,NA,NA,NA,NA,NA,NA,NA,NA,NA,NA,NA,NA,NA,NA,NA,NA,NA,NA,NA,NA,NA,NA,0.458,0.328,-1.89,0.247,-1.43,0.253,0.073,0.499,-1.99,0.373,-1.91,0.382,NA,NA,NA,NA,NA,NA,NA,NA,NA,NA,NA,NA,0.474,0.416,-0.975,0.327,-0.501,0.361,0.293,0.49,-0.884,0.38,-0.591,0.401,04,0.66528678,1299.3832,0.67500001,3992.9856
0401460,-110.147,31.599,Sierra Vista Unified District,AZ,ARIZONA,-0.052,0.371,0.074,0.272,0.022,0.289,-0.651,0.499,-0.011,0.372,-0.662,0.398,NA,NA,NA,NA,NA,NA,NA,NA,NA,NA,NA,NA,NA,NA,NA,NA,NA,NA,NA,NA,NA,NA,NA,NA,0.148,0.393,-0.617,0.293,-0.469,0.326,-0.622,0.544,-0.611,0.39,-1.23,0.45,NA,NA,NA,NA,NA,NA,NA,NA,NA,NA,NA,NA,-0.193,0.394,0.824,0.298,0.63,0.339,-0.709,0.471,0.696,0.356,-0.013,0.39,04,0.45461071,2223.9119,0.2,4243.2773
0401500,-114.565,35.49,Bullhead City School District,AZ,ARIZONA,-0.039,0.415,-1.88,0.304,-1.92,0.335,-0.588,0.531,-1.67,0.401,-2.26,0.441,NA,NA,NA,NA,NA,NA,NA,NA,NA,NA,NA,NA,NA,NA,NA,NA,NA,NA,NA,NA,NA,NA,NA,NA,0.212,0.446,-2.28,0.369,-2.07,0.375,-0.597,0.578,-1.82,0.444,-2.42,0.493,NA,NA,NA,NA,NA,NA,NA,NA,NA,NA,NA,NA,-0.16,0.417,-1.42,0.332,-1.58,0.359,-0.514,0.495,-1.34,0.394,-1.85,0.411,04,0.78884774,3906.7273,0,4309.3174
0401600,-111.734,34.486,Camp Verde Unified District,AZ,ARIZONA,-0.037,0.475,-1.49,0.349,-1.53,0.41,-0.261,0.55,-1.44,0.437,-1.7,0.437,NA,NA,NA,NA,NA,NA,NA,NA,NA,NA,NA,NA,NA,NA,NA,NA,NA,NA,NA,NA,NA,NA,NA,NA,NA,NA,NA,NA,NA,NA,NA,NA,NA,NA,NA,NA,NA,NA,NA,NA,NA,NA,NA,NA,NA,NA,NA,NA,NA,NA,NA,NA,NA,NA,NA,NA,NA,NA,NA,NA,04,0.60698414,1975.6614,0,4041.5662
0401680,-112.202,33.488,Cartwright Elementary District,AZ,ARIZONA,-0.161,0.337,-1.92,0.244,-2.08,0.258,-0.872,0.481,-1.58,0.357,-2.45,0.381,NA,NA,NA,NA,NA,NA,NA,NA,NA,NA,NA,NA,NA,NA,NA,NA,NA,NA,NA,NA,NA,NA,NA,NA,-0.137,0.283,-1.9,0.205,-2.04,0.219,-0.84,0.468,-1.51,0.342,-2.35,0.359,NA,NA,NA,NA,NA,NA,NA,NA,NA,NA,NA,NA,NA,NA,NA,NA,NA,NA,NA,NA,NA,NA,NA,NA,04,0.90763342,4641.1187,0.67500001,4574.5952
0401710,-111.841,32.908,Casa Grande Elementary District,AZ,ARIZONA,-0.496,0.361,-1.55,0.259,-2.04,0.287,-0.995,0.492,-1.47,0.364,-2.47,0.394,NA,NA,NA,NA,NA,NA,NA,NA,NA,NA,NA,NA,NA,NA,NA,NA,NA,NA,NA,NA,NA,NA,NA,NA,-0.349,0.336,-1.86,0.237,-2.21,0.277,-0.796,0.499,-1.77,0.36,-2.56,0.395,NA,NA,NA,NA,NA,NA,NA,NA,NA,NA,NA,NA,-0.413,0.404,-0.291,0.306,-0.704,0.356,-0.987,0.483,-0.301,0.355,-1.29,0.411,04,0.69071382,2368.9648,0.625,3843.7407
0401760,-110.845,32.316,Catalina Foothills Unified District,AZ,ARIZONA,0.021,0.367,2.09,0.274,2.11,0.282,-0.347,0.493,1.73,0.372,1.38,0.386,NA,NA,NA,NA,NA,NA,NA,NA,NA,NA,NA,NA,NA,NA,NA,NA,NA,NA,NA,NA,NA,NA,NA,NA,-0.189,0.392,1.13,0.308,0.939,0.319,-0.509,0.533,0.727,0.403,0.218,0.414,NA,NA,NA,NA,NA,NA,NA,NA,NA,NA,NA,NA,0.137,0.367,2.41,0.286,2.55,0.297,-0.321,0.447,2.06,0.343,1.74,0.353,04,0.12191425,421.70676,0.5,4070.9875
0401870,-111.84,33.26,Chandler Unified District #80,AZ,ARIZONA,0.334,0.323,1,0.236,1.34,0.244,-0.094,0.471,0.994,0.352,0.9,0.367,0.151,0.164,-0.348,0.264,-0.197,0.25,-0.126,0.328,-0.772,0.291,-0.897,0.32,NA,NA,NA,NA,NA,NA,NA,NA,NA,NA,NA,NA,0.454,0.283,-0.546,0.208,-0.092,0.215,-0.111,0.466,-0.565,0.344,-0.676,0.353,NA,NA,NA,NA,NA,NA,NA,NA,NA,NA,NA,NA,0.247,0.308,1.63,0.229,1.87,0.239,-0.064,0.411,1.57,0.305,1.51,0.322,04,0.22866933,670.21161,0.125,4595.8384
0401940,-109.393,36.151,Chinle Unified District,AZ,ARIZONA,-0.076,0.438,-1.65,0.293,-1.72,0.383,-0.832,0.533,-0.89,0.38,-1.72,0.45,NA,NA,NA,NA,NA,NA,NA,NA,NA,NA,NA,NA,NA,NA,NA,NA,NA,NA,NA,NA,NA,NA,NA,NA,NA,NA,NA,NA,NA,NA,NA,NA,NA,NA,NA,NA,NA,NA,NA,NA,NA,NA,NA,NA,NA,NA,NA,NA,NA,NA,NA,NA,NA,NA,NA,NA,NA,NA,NA,NA,04,0.93741274,6459.3008,1,7292.7412
0402370,-111.971,34.89,Cottonwood-Oak Creek Elementary District,AZ,ARIZONA,0.07,0.411,-1.2,0.305,-1.13,0.329,-0.695,0.53,-1.46,0.393,-2.15,0.439,NA,NA,NA,NA,NA,NA,NA,NA,NA,NA,NA,NA,NA,NA,NA,NA,NA,NA,NA,NA,NA,NA,NA,NA,0.252,0.412,-1.84,0.33,-1.59,0.329,-0.525,0.556,-2.12,0.428,-2.64,0.436,NA,NA,NA,NA,NA,NA,NA,NA,NA,NA,NA,NA,0.021,0.475,-0.527,0.342,-0.505,0.472,-0.634,0.487,-0.766,0.372,-1.4,0.406,04,0.65279287,1801.7363,0,4967.7417
0402400,-114.688,32.679,Crane Elementary District,AZ,ARIZONA,-0.011,0.352,-0.73,0.257,-0.741,0.271,-0.69,0.493,-0.825,0.369,-1.51,0.39,NA,NA,NA,NA,NA,NA,NA,NA,NA,NA,NA,NA,NA,NA,NA,NA,NA,NA,NA,NA,NA,NA,NA,NA,0.026,0.308,-1.06,0.226,-1.04,0.24,-0.665,0.489,-1.13,0.361,-1.8,0.376,NA,NA,NA,NA,NA,NA,NA,NA,NA,NA,NA,NA,-0.009,0.449,1.03,0.345,1.02,0.421,-0.549,0.547,0.759,0.394,0.21,0.491,04,0.78412825,1769.3459,0.55000001,3611.9143
0402430,-112.016,33.476,Creighton Elementary District,AZ,ARIZONA,0.076,0.378,-2.45,0.278,-2.38,0.296,-0.711,0.507,-2.11,0.376,-2.82,0.411,NA,NA,NA,NA,NA,NA,NA,NA,NA,NA,NA,NA,NA,NA,NA,NA,NA,NA,NA,NA,NA,NA,NA,NA,0.119,0.34,-2.56,0.249,-2.44,0.273,-0.663,0.504,-2.16,0.366,-2.83,0.397,NA,NA,NA,NA,NA,NA,NA,NA,NA,NA,NA,NA,NA,NA,NA,NA,NA,NA,NA,NA,NA,NA,NA,NA,04,0.94094092,5216.2363,0.67500001,4309.6519
0402530,-109.16,31.443,Douglas Unified District,AZ,ARIZONA,0.126,0.396,-1.5,0.293,-1.37,0.313,-0.639,0.521,-1.46,0.389,-2.1,0.428,NA,NA,NA,NA,NA,NA,NA,NA,NA,NA,NA,NA,NA,NA,NA,NA,NA,NA,NA,NA,NA,NA,NA,NA,0.147,0.353,-1.53,0.264,-1.39,0.279,-0.563,0.514,-1.47,0.379,-2.03,0.407,NA,NA,NA,NA,NA,NA,NA,NA,NA,NA,NA,NA,NA,NA,NA,NA,NA,NA,NA,NA,NA,NA,NA,NA,04,0.83065432,4332.2656,0.67500001,3944.3364
0402690,-112.443,33.622,Dysart Unified District,AZ,ARIZONA,0.508,0.328,-0.278,0.241,0.231,0.249,0.021,0.475,-0.16,0.355,-0.139,0.37,0.271,0.169,-1.1,0.303,-0.832,0.283,-0.184,0.343,-1.23,0.319,-1.41,0.354,NA,NA,NA,NA,NA,NA,NA,NA,NA,NA,NA,NA,0.47,0.292,-0.92,0.216,-0.45,0.224,-0.011,0.473,-0.796,0.349,-0.807,0.36,NA,NA,NA,NA,NA,NA,NA,NA,NA,NA,NA,NA,0.426,0.323,0.472,0.242,0.898,0.254,0.106,0.421,0.514,0.314,0.619,0.331,04,0.48308566,1483.3522,0,4298.4546
0402860,-111.275,35.094,Flagstaff Unified District,AZ,ARIZONA,-0.295,0.359,-0.868,0.261,-1.16,0.28,-0.758,0.496,-1.13,0.367,-1.89,0.398,NA,NA,NA,NA,NA,NA,NA,NA,NA,NA,NA,NA,NA,NA,NA,NA,NA,NA,NA,NA,NA,NA,NA,NA,-0.215,0.385,-1.64,0.289,-1.86,0.322,-0.681,0.561,-1.84,0.399,-2.53,0.479,NA,NA,NA,NA,NA,NA,NA,NA,NA,NA,NA,NA,-0.076,0.363,0.819,0.277,0.742,0.295,-0.506,0.448,0.312,0.334,-0.194,0.364,04,0.4092457,1434.1434,0.69999999,4895.7813
0402920,-111.117,32.861,Florence Unified School District,AZ,ARIZONA,0.124,0.352,-1.48,0.258,-1.36,0.272,-0.439,0.488,-1.41,0.363,-1.84,0.386,NA,NA,NA,NA,NA,NA,NA,NA,NA,NA,NA,NA,NA,NA,NA,NA,NA,NA,NA,NA,NA,NA,NA,NA,0.329,0.36,-2.03,0.272,-1.7,0.289,-0.38,0.515,-1.77,0.376,-2.15,0.41,NA,NA,NA,NA,NA,NA,NA,NA,NA,NA,NA,NA,-0.014,0.354,-0.964,0.266,-0.979,0.29,-0.421,0.441,-0.96,0.328,-1.38,0.356,04,0.56522024,1553.3578,0.15000001,3892.3044
0403010,-111.046,32.32,Flowing Wells Unified District,AZ,ARIZONA,-0.318,0.363,-0.356,0.266,-0.674,0.282,-0.722,0.491,-0.148,0.366,-0.87,0.388,NA,NA,NA,NA,NA,NA,NA,NA,NA,NA,NA,NA,NA,NA,NA,NA,NA,NA,NA,NA,NA,NA,NA,NA,-0.309,0.327,-0.61,0.242,-0.919,0.258,-0.806,0.49,-0.385,0.359,-1.19,0.38,NA,NA,NA,NA,NA,NA,NA,NA,NA,NA,NA,NA,-0.063,0.434,0.33,0.339,0.267,0.391,-0.44,0.495,0.506,0.374,0.066,0.419,04,0.68901753,2096.262,0.27500001,4309.4604
0403040,-111.733,33.609,Fountain Hills Unified District,AZ,ARIZONA,0.078,0.48,0.46,0.346,0.537,0.422,-0.816,0.567,0.399,0.428,-0.417,0.478,NA,NA,NA,NA,NA,NA,NA,NA,NA,NA,NA,NA,NA,NA,NA,NA,NA,NA,NA,NA,NA,NA,NA,NA,NA,NA,NA,NA,NA,NA,NA,NA,NA,NA,NA,NA,NA,NA,NA,NA,NA,NA,NA,NA,NA,NA,NA,NA,NA,NA,NA,NA,NA,NA,NA,NA,NA,NA,NA,NA,04,0.25938419,976.79095,0.050000001,4376.437
0403060,-112.215,33.443,Fowler Elementary District,AZ,ARIZONA,-0.241,0.371,-1.59,0.268,-1.83,0.295,-0.911,0.528,-1.8,0.38,-2.71,0.449,NA,NA,NA,NA,NA,NA,NA,NA,NA,NA,NA,NA,NA,NA,NA,NA,NA,NA,NA,NA,NA,NA,NA,NA,-0.155,0.336,-1.69,0.242,-1.84,0.273,-0.864,0.532,-1.81,0.372,-2.68,0.446,NA,NA,NA,NA,NA,NA,NA,NA,NA,NA,NA,NA,NA,NA,NA,NA,NA,NA,NA,NA,NA,NA,NA,NA,04,0.8080762,3439.3884,0.57499999,4480.5781
0403150,-110.37,31.555,Fort Huachuca Accommodation District,AZ,ARIZONA,0.651,0.452,1.04,0.336,1.69,0.377,0.232,0.539,1.1,0.411,1.33,0.439,NA,NA,NA,NA,NA,NA,NA,NA,NA,NA,NA,NA,NA,NA,NA,NA,NA,NA,NA,NA,NA,NA,NA,NA,NA,NA,NA,NA,NA,NA,NA,NA,NA,NA,NA,NA,NA,NA,NA,NA,NA,NA,NA,NA,NA,NA,NA,NA,NA,NA,NA,NA,NA,NA,NA,NA,NA,NA,NA,NA,04,0.33296338,602.9295,0,6071.4287
0403240,-114.769,32.525,Gadsden Elementary District,AZ,ARIZONA,0.173,0.4,-1.63,0.327,-1.46,0.287,-0.293,0.534,-1.22,0.442,-1.52,0.397,NA,NA,NA,NA,NA,NA,NA,NA,NA,NA,NA,NA,NA,NA,NA,NA,NA,NA,NA,NA,NA,NA,NA,NA,0.172,0.346,-1.63,0.284,-1.45,0.251,-0.256,0.529,-1.25,0.431,-1.51,0.376,NA,NA,NA,NA,NA,NA,NA,NA,NA,NA,NA,NA,NA,NA,NA,NA,NA,NA,NA,NA,NA,NA,NA,NA,04,0.97173268,2413.8401,0.72500002,3913.2764
0403400,-111.771,33.351,Gilbert Unified District,AZ,ARIZONA,0.214,0.324,0.946,0.237,1.16,0.245,-0.167,0.472,1.02,0.353,0.856,0.367,0.143,0.173,-0.699,0.339,-0.557,0.312,-0.131,0.34,-0.78,0.327,-0.911,0.339,NA,NA,NA,NA,NA,NA,NA,NA,NA,NA,NA,NA,0.283,0.29,-0.065,0.214,0.218,0.221,-0.199,0.468,-0.011,0.346,-0.21,0.356,NA,NA,NA,NA,NA,NA,NA,NA,NA,NA,NA,NA,0.221,0.309,1.41,0.23,1.63,0.24,-0.106,0.412,1.48,0.307,1.37,0.322,04,0.25194693,634.93427,0,4677.7871
0403420,-112.216,33.531,Glendale Elementary District,AZ,ARIZONA,-0.314,0.347,-1.83,0.248,-2.14,0.272,-1.05,0.484,-1.32,0.359,-2.37,0.383,NA,NA,NA,NA,NA,NA,NA,NA,NA,NA,NA,NA,NA,NA,NA,NA,NA,NA,NA,NA,NA,NA,NA,NA,-0.438,0.307,-1.85,0.215,-2.28,0.25,-1.13,0.476,-1.28,0.347,-2.41,0.369,NA,NA,NA,NA,NA,NA,NA,NA,NA,NA,NA,NA,NA,NA,NA,NA,NA,NA,NA,NA,NA,NA,NA,NA,04,0.90924597,3819.6294,0.69999999,4107.5845
0403780,-111.704,33.292,Higley Unified School District,AZ,ARIZONA,-0.026,0.337,1.55,0.248,1.53,0.256,-0.405,0.479,1.72,0.359,1.31,0.375,NA,NA,NA,NA,NA,NA,NA,NA,NA,NA,NA,NA,NA,NA,NA,NA,NA,NA,NA,NA,NA,NA,NA,NA,-0.305,0.34,0.853,0.254,0.549,0.271,-0.598,0.504,0.831,0.377,0.233,0.386,NA,NA,NA,NA,NA,NA,NA,NA,NA,NA,NA,NA,0.026,0.325,1.88,0.245,1.91,0.254,-0.357,0.424,2.1,0.317,1.74,0.334,04,0.18674196,603.19556,0,4068.5059
0403820,-110.026,35.421,Holbrook Unified District,AZ,ARIZONA,-0.117,0.449,-0.921,0.347,-1.04,0.358,-0.463,0.56,-1.2,0.45,-1.66,0.446,NA,NA,NA,NA,NA,NA,NA,NA,NA,NA,NA,NA,NA,NA,NA,NA,NA,NA,NA,NA,NA,NA,NA,NA,NA,NA,NA,NA,NA,NA,NA,NA,NA,NA,NA,NA,NA,NA,NA,NA,NA,NA,NA,NA,NA,NA,NA,NA,NA,NA,NA,NA,NA,NA,NA,NA,NA,NA,NA,NA,04,0.72112191,3430.5393,0,6090.5889
0403870,-112.22,34.579,Humboldt Unified District,AZ,ARIZONA,-0.118,0.356,0.177,0.259,0.058,0.276,-0.451,0.488,-0.006,0.364,-0.457,0.386,NA,NA,NA,NA,NA,NA,NA,NA,NA,NA,NA,NA,NA,NA,NA,NA,NA,NA,NA,NA,NA,NA,NA,NA,-0.166,0.366,-0.77,0.271,-0.935,0.302,-0.36,0.519,-0.829,0.383,-1.19,0.407,NA,NA,NA,NA,NA,NA,NA,NA,NA,NA,NA,NA,-0.081,0.351,0.721,0.264,0.64,0.285,-0.429,0.44,0.457,0.327,0.028,0.353,04,0.51717573,1912.4514,0.050000001,4465.4233
0403960,-112.146,33.466,Isaac Elementary District,AZ,ARIZONA,0.273,0.384,-2.92,0.279,-2.64,0.303,-0.407,0.512,-2.54,0.379,-2.95,0.42,NA,NA,NA,NA,NA,NA,NA,NA,NA,NA,NA,NA,NA,NA,NA,NA,NA,NA,NA,NA,NA,NA,NA,NA,0.364,0.341,-2.93,0.249,-2.57,0.268,-0.294,0.504,-2.53,0.368,-2.82,0.4,NA,NA,NA,NA,NA,NA,NA,NA,NA,NA,NA,NA,NA,NA,NA,NA,NA,NA,NA,NA,NA,NA,NA,NA,04,0.99177074,5664.3804,0.67500001,4963.4087
0403990,-111.479,33.249,J O Combs Unified School District,AZ,ARIZONA,-0.121,0.38,-0.883,0.282,-1,0.296,-0.673,0.513,-0.809,0.383,-1.48,0.415,NA,NA,NA,NA,NA,NA,NA,NA,NA,NA,NA,NA,NA,NA,NA,NA,NA,NA,NA,NA,NA,NA,NA,NA,0.103,0.402,-1.49,0.332,-1.39,0.31,-0.579,0.564,-1.51,0.441,-2.09,0.447,NA,NA,NA,NA,NA,NA,NA,NA,NA,NA,NA,NA,-0.077,0.39,-0.411,0.299,-0.489,0.33,-0.65,0.481,-0.21,0.356,-0.86,0.406,04,0.4047358,1401.2458,0,3788.4827
0404060,-110.362,36.648,Kayenta Unified School District #27,AZ,ARIZONA,0.215,0.475,-1.98,0.355,-1.77,0.414,-0.925,0.564,-2,0.424,-2.92,0.488,NA,NA,NA,NA,NA,NA,NA,NA,NA,NA,NA,NA,NA,NA,NA,NA,NA,NA,NA,NA,NA,NA,NA,NA,NA,NA,NA,NA,NA,NA,NA,NA,NA,NA,NA,NA,NA,NA,NA,NA,NA,NA,NA,NA,NA,NA,NA,NA,NA,NA,NA,NA,NA,NA,NA,NA,NA,NA,NA,NA,04,0.92033964,7292.3569,0.69999999,7467.1318
0404230,-112.003,33.284,Kyrene Elementary District,AZ,ARIZONA,-0.068,0.328,1.14,0.24,1.07,0.249,-0.546,0.475,1,0.354,0.454,0.37,0.158,0.161,-0.959,0.254,-0.801,0.241,-0.269,0.329,-1.01,0.282,-1.28,0.33,NA,NA,NA,NA,NA,NA,NA,NA,NA,NA,NA,NA,-0.08,0.298,0.399,0.218,0.319,0.231,-0.621,0.474,0.219,0.349,-0.402,0.362,NA,NA,NA,NA,NA,NA,NA,NA,NA,NA,NA,NA,-0.068,0.322,2.18,0.242,2.11,0.253,-0.535,0.421,2.05,0.314,1.51,0.332,04,0.28632379,564.38293,0.40000001,4953.3359
0404280,-114.287,34.529,Lake Havasu Unified District,AZ,ARIZONA,-0.324,0.358,0.173,0.264,-0.151,0.276,-0.784,0.491,0.6,0.368,-0.183,0.389,NA,NA,NA,NA,NA,NA,NA,NA,NA,NA,NA,NA,NA,NA,NA,NA,NA,NA,NA,NA,NA,NA,NA,NA,-0.143,0.397,-0.511,0.307,-0.654,0.326,-0.578,0.554,-0.092,0.414,-0.67,0.455,NA,NA,NA,NA,NA,NA,NA,NA,NA,NA,NA,NA,-0.272,0.351,0.366,0.265,0.095,0.284,-0.737,0.44,0.886,0.329,0.149,0.353,04,0.46227282,1624.5298,0,4129.9058000000005
0404290,-112.167,33.368,Laveen Elementary District,AZ,ARIZONA,0.309,0.343,-0.699,0.254,-0.39,0.259,-0.364,0.483,-0.451,0.363,-0.816,0.379,0.258,0.169,-1.44,0.299,-1.18,0.28,-0.252,0.339,-1.39,0.32,-1.64,0.347,NA,NA,NA,NA,NA,NA,NA,NA,NA,NA,NA,NA,0.223,0.301,-0.759,0.225,-0.536,0.228,-0.426,0.48,-0.53,0.356,-0.956,0.366,NA,NA,NA,NA,NA,NA,NA,NA,NA,NA,NA,NA,NA,NA,NA,NA,NA,NA,NA,NA,NA,NA,NA,NA,04,0.68470556,1368.036,0.5,3782.0342
0404320,-112.409,33.249,Liberty Elementary District,AZ,ARIZONA,0.144,0.359,-0.494,0.263,-0.35,0.278,-0.898,0.492,-0.289,0.369,-1.19,0.388,NA,NA,NA,NA,NA,NA,NA,NA,NA,NA,NA,NA,NA,NA,NA,NA,NA,NA,NA,NA,NA,NA,NA,NA,0.079,0.356,-1.22,0.286,-1.14,0.272,-0.832,0.529,-1.06,0.413,-1.89,0.396,NA,NA,NA,NA,NA,NA,NA,NA,NA,NA,NA,NA,0.431,0.378,0.461,0.282,0.892,0.321,-0.681,0.458,0.696,0.347,0.015,0.369,04,0.43446738,814.09528,0.57499999,4134.8579
0404380,-112.417,33.508,Litchfield Elementary District,AZ,ARIZONA,-0.026,0.331,0.7,0.243,0.674,0.251,-0.542,0.476,0.896,0.356,0.354,0.372,0.15,0.169,-0.575,0.324,-0.425,0.293,-0.25,0.36,-0.826,0.332,-1.08,0.384,NA,NA,NA,NA,NA,NA,NA,NA,NA,NA,NA,NA,-0.119,0.297,0.026,0.22,-0.094,0.228,-0.69,0.474,0.253,0.35,-0.437,0.362,NA,NA,NA,NA,NA,NA,NA,NA,NA,NA,NA,NA,0.097,0.329,1.44,0.246,1.53,0.261,-0.433,0.426,1.71,0.319,1.27,0.337,04,0.30856755,599.71808,0.23076923,4001.0962
0404440,-112.307,33.412,Littleton Elementary District,AZ,ARIZONA,0.128,0.353,-1.52,0.258,-1.39,0.273,-0.43,0.489,-1.56,0.365,-1.99,0.387,NA,NA,NA,NA,NA,NA,NA,NA,NA,NA,NA,NA,NA,NA,NA,NA,NA,NA,NA,NA,NA,NA,NA,NA,0.089,0.313,-1.6,0.229,-1.51,0.245,-0.337,0.483,-1.63,0.356,-1.97,0.371,NA,NA,NA,NA,NA,NA,NA,NA,NA,NA,NA,NA,NA,NA,NA,NA,NA,NA,NA,NA,NA,NA,NA,NA,04,0.79960287,1425.0538,0.69999999,3975.6687
0404500,-112.041,33.525,Madison Elementary District,AZ,ARIZONA,0.084,0.349,0.921,0.257,1.01,0.267,-0.859,0.487,0.954,0.364,0.095,0.383,NA,NA,NA,NA,NA,NA,NA,NA,NA,NA,NA,NA,NA,NA,NA,NA,NA,NA,NA,NA,NA,NA,NA,NA,0.039,0.339,-0.11,0.256,-0.071,0.27,-0.954,0.508,-0.041,0.371,-0.995,0.399,NA,NA,NA,NA,NA,NA,NA,NA,NA,NA,NA,NA,0.037,0.352,2.06,0.271,2.1,0.282,-0.768,0.443,2.1,0.337,1.33,0.351,04,0.32894298,797.55054,0.60000002,4051.5828
0404630,-111.332,32.36,Marana Unified District,AZ,ARIZONA,0.33,0.34,-0.513,0.25,-0.184,0.259,-0.196,0.479,-0.278,0.359,-0.474,0.375,NA,NA,NA,NA,NA,NA,NA,NA,NA,NA,NA,NA,NA,NA,NA,NA,NA,NA,NA,NA,NA,NA,NA,NA,0.375,0.322,-0.97,0.242,-0.595,0.247,-0.281,0.486,-0.787,0.359,-1.07,0.374,NA,NA,NA,NA,NA,NA,NA,NA,NA,NA,NA,NA,0.253,0.339,-0.085,0.255,0.168,0.271,-0.15,0.428,0.142,0.32,-0.009,0.339,04,0.39396581,844.48462,0.25,4393.5605
0404720,-112.126,33.042,Maricopa Unified School District,AZ,ARIZONA,0.001,0.361,-0.885,0.264,-0.884,0.281,-0.515,0.493,-0.729,0.37,-1.24,0.39,NA,NA,NA,NA,NA,NA,NA,NA,NA,NA,NA,NA,NA,NA,NA,NA,NA,NA,NA,NA,NA,NA,NA,NA,0.236,0.36,-1.44,0.276,-1.2,0.289,-0.397,0.52,-1.06,0.396,-1.45,0.404,NA,NA,NA,NA,NA,NA,NA,NA,NA,NA,NA,NA,-0.005,0.394,0.269,0.297,0.264,0.339,-0.593,0.468,0.311,0.349,-0.282,0.388,04,0.5269258,1397.7142,0,3865.8569
0404970,-111.656,33.454,Mesa Unified District,AZ,ARIZONA,-0.172,0.321,-0.325,0.234,-0.498,0.242,-0.89,0.471,-0.091,0.352,-0.981,0.367,0.211,0.166,-1.84,0.28,-1.63,0.265,-0.551,0.343,-1.79,0.307,-2.34,0.369,NA,NA,NA,NA,NA,NA,NA,NA,NA,NA,NA,NA,-0.117,0.273,-1.43,0.198,-1.55,0.208,-0.961,0.461,-1.11,0.339,-2.07,0.351,NA,NA,NA,NA,NA,NA,NA,NA,NA,NA,NA,NA,-0.114,0.308,1.23,0.229,1.12,0.239,-0.672,0.412,1.49,0.307,0.823,0.322,04,0.55382621,2530.0042,0.050000001,4776.9644
0405190,-114.364,34.926,Mohave Valley Elementary District,AZ,ARIZONA,0.831,0.436,-1.02,0.353,-0.185,0.329,0.613,0.552,-0.892,0.437,-0.28,0.436,NA,NA,NA,NA,NA,NA,NA,NA,NA,NA,NA,NA,NA,NA,NA,NA,NA,NA,NA,NA,NA,NA,NA,NA,NA,NA,NA,NA,NA,NA,NA,NA,NA,NA,NA,NA,NA,NA,NA,NA,NA,NA,NA,NA,NA,NA,NA,NA,0.552,0.445,-0.705,0.371,-0.153,0.394,0.588,0.539,-0.595,0.433,-0.007,0.461,04,0.61721689,3046.8003,0.1,5306.043
0405320,-109.218,33.093,Morenci Unified District,AZ,ARIZONA,-0.134,0.445,0.412,0.325,0.278,0.372,-0.17,0.533,0.168,0.405,-0.002,0.433,NA,NA,NA,NA,NA,NA,NA,NA,NA,NA,NA,NA,NA,NA,NA,NA,NA,NA,NA,NA,NA,NA,NA,NA,NA,NA,NA,NA,NA,NA,NA,NA,NA,NA,NA,NA,NA,NA,NA,NA,NA,NA,NA,NA,NA,NA,NA,NA,NA,NA,NA,NA,NA,NA,NA,NA,NA,NA,NA,NA,04,0.40559897,491.28641,0,5804.2896
0405460,-112.47,33.791,Nadaburg Unified School District,AZ,ARIZONA,0.074,0.496,-0.802,0.369,-0.728,0.438,-0.464,0.54,-0.72,0.417,-1.18,0.435,NA,NA,NA,NA,NA,NA,NA,NA,NA,NA,NA,NA,NA,NA,NA,NA,NA,NA,NA,NA,NA,NA,NA,NA,NA,NA,NA,NA,NA,NA,NA,NA,NA,NA,NA,NA,NA,NA,NA,NA,NA,NA,NA,NA,NA,NA,NA,NA,NA,NA,NA,NA,NA,NA,NA,NA,NA,NA,NA,NA,04,0.5457921,1897.8947,0.050000001,8276.6992
0405530,-111.231,31.453,Nogales Unified District,AZ,ARIZONA,-0.082,0.373,-0.918,0.273,-0.999,0.291,-0.609,0.498,-0.556,0.373,-1.17,0.396,NA,NA,NA,NA,NA,NA,NA,NA,NA,NA,NA,NA,NA,NA,NA,NA,NA,NA,NA,NA,NA,NA,NA,NA,-0.053,0.325,-0.952,0.238,-1.01,0.255,-0.642,0.487,-0.564,0.36,-1.21,0.375,NA,NA,NA,NA,NA,NA,NA,NA,NA,NA,NA,NA,NA,NA,NA,NA,NA,NA,NA,NA,NA,NA,NA,NA,04,0.89270049,3073.0444,0.42500001,4248.6733
0405670,-112.079,33.494,Osborn Elementary District,AZ,ARIZONA,-0.317,0.418,-1.62,0.292,-1.94,0.353,-1.18,0.526,-0.841,0.381,-2.02,0.44,NA,NA,NA,NA,NA,NA,NA,NA,NA,NA,NA,NA,NA,NA,NA,NA,NA,NA,NA,NA,NA,NA,NA,NA,-0.271,0.402,-1.64,0.286,-1.91,0.363,-1.29,0.547,-0.799,0.382,-2.09,0.458,NA,NA,NA,NA,NA,NA,NA,NA,NA,NA,NA,NA,NA,NA,NA,NA,NA,NA,NA,NA,NA,NA,NA,NA,04,0.82075572,3724.9885,0.69999999,4549.0542
0405820,-111.041,36.781,Page Unified District,AZ,ARIZONA,-0.092,0.495,-2.41,0.35,-2.51,0.444,-0.453,0.56,-1.91,0.413,-2.37,0.48,NA,NA,NA,NA,NA,NA,NA,NA,NA,NA,NA,NA,NA,NA,NA,NA,NA,NA,NA,NA,NA,NA,NA,NA,NA,NA,NA,NA,NA,NA,NA,NA,NA,NA,NA,NA,NA,NA,NA,NA,NA,NA,NA,NA,NA,NA,NA,NA,NA,NA,NA,NA,NA,NA,NA,NA,NA,NA,NA,NA,04,0.61240155,1776.9564,0.40000001,4663.6016
0405880,-110.13,31.423,Palominas Elementary District,AZ,ARIZONA,-0.077,0.458,0.012,0.343,-0.065,0.385,-0.726,0.553,0.143,0.414,-0.583,0.462,NA,NA,NA,NA,NA,NA,NA,NA,NA,NA,NA,NA,NA,NA,NA,NA,NA,NA,NA,NA,NA,NA,NA,NA,NA,NA,NA,NA,NA,NA,NA,NA,NA,NA,NA,NA,NA,NA,NA,NA,NA,NA,NA,NA,NA,NA,NA,NA,NA,NA,NA,NA,NA,NA,NA,NA,NA,NA,NA,NA,04,0.47930282,1863.9849,0,7504.7021
0405930,-111.975,33.662,Paradise Valley Unified District,AZ,ARIZONA,0.171,0.33,0.495,0.239,0.666,0.252,-0.12,0.475,0.34,0.354,0.22,0.372,NA,NA,NA,NA,NA,NA,NA,NA,NA,NA,NA,NA,NA,NA,NA,NA,NA,NA,NA,NA,NA,NA,NA,NA,0.118,0.312,-1.29,0.222,-1.17,0.249,-0.527,0.484,-1.13,0.351,-1.66,0.377,NA,NA,NA,NA,NA,NA,NA,NA,NA,NA,NA,NA,0.232,0.317,1.48,0.233,1.71,0.251,0.084,0.416,1.19,0.308,1.27,0.329,04,0.33085001000000003,1338.6183,0.2,5043.6787
0405980,-114.406,33.908,Parker Unified School District,AZ,ARIZONA,0.4,0.476,-2.29,0.377,-1.89,0.386,-0.01,0.551,-1.38,0.426,-1.39,0.453,NA,NA,NA,NA,NA,NA,NA,NA,NA,NA,NA,NA,NA,NA,NA,NA,NA,NA,NA,NA,NA,NA,NA,NA,NA,NA,NA,NA,NA,NA,NA,NA,NA,NA,NA,NA,NA,NA,NA,NA,NA,NA,NA,NA,NA,NA,NA,NA,NA,NA,NA,NA,NA,NA,NA,NA,NA,NA,NA,NA,04,0.76658517,3111.0566,0,5320.5591
0406070,-111.245,34.28,Payson Unified District,AZ,ARIZONA,-0.486,0.421,-0.05,0.321,-0.536,0.335,-1.02,0.549,-0.564,0.398,-1.59,0.469,NA,NA,NA,NA,NA,NA,NA,NA,NA,NA,NA,NA,NA,NA,NA,NA,NA,NA,NA,NA,NA,NA,NA,NA,NA,NA,NA,NA,NA,NA,NA,NA,NA,NA,NA,NA,NA,NA,NA,NA,NA,NA,NA,NA,NA,NA,NA,NA,-0.412,0.415,0.144,0.338,-0.269,0.353,-0.999,0.507,-0.3,0.37,-1.3,0.443,04,0.49738589,1748.1167,0.55000001,4005.3127
0406210,-112.267,33.508,Pendergast Elementary District,AZ,ARIZONA,-0.022,0.343,-1.27,0.247,-1.29,0.266,-0.696,0.486,-1.21,0.36,-1.91,0.386,NA,NA,NA,NA,NA,NA,NA,NA,NA,NA,NA,NA,NA,NA,NA,NA,NA,NA,NA,NA,NA,NA,NA,NA,0.034,0.297,-1.34,0.213,-1.31,0.235,-0.661,0.481,-1.33,0.35,-1.99,0.373,NA,NA,NA,NA,NA,NA,NA,NA,NA,NA,NA,NA,-0.05,0.458,-0.543,0.34,-0.593,0.44,-0.506,0.504,-0.277,0.384,-0.783,0.428,04,0.67208588,2096.2336,0.69999999,4274.6426
0406250,-112.325,33.827,Peoria Unified School District,AZ,ARIZONA,0.049,0.322,0.134,0.236,0.183,0.243,-0.415,0.471,0.257,0.352,-0.158,0.367,0.217,0.166,-1.15,0.297,-0.931,0.278,-0.336,0.342,-1.31,0.313,-1.64,0.356,NA,NA,NA,NA,NA,NA,NA,NA,NA,NA,NA,NA,0.15,0.281,-0.712,0.207,-0.562,0.214,-0.365,0.465,-0.573,0.344,-0.938,0.352,NA,NA,NA,NA,NA,NA,NA,NA,NA,NA,NA,NA,0.042,0.309,0.731,0.23,0.773,0.24,-0.324,0.412,0.863,0.307,0.539,0.322,04,0.40640908,1041.6743,0.27500001,4310.8188
0406300,-112.073,33.449,Phoenix Elementary District,AZ,ARIZONA,0.11,0.361,-1.55,0.261,-1.44,0.283,-0.637,0.495,-1.48,0.367,-2.12,0.397,NA,NA,NA,NA,NA,NA,NA,NA,NA,NA,NA,NA,NA,NA,NA,NA,NA,NA,NA,NA,NA,NA,NA,NA,-0.008,0.319,-1.6,0.23,-1.61,0.255,-0.621,0.49,-1.51,0.358,-2.13,0.382,NA,NA,NA,NA,NA,NA,NA,NA,NA,NA,NA,NA,NA,NA,NA,NA,NA,NA,NA,NA,NA,NA,NA,NA,04,0.78693819,6362.8975,0.67500001,6231.4473
0406440,-109.913,32.837,Pima Unified District,AZ,ARIZONA,0.166,0.493,-1.29,0.399,-1.13,0.407,-0.369,0.566,-1.35,0.438,-1.72,0.468,NA,NA,NA,NA,NA,NA,NA,NA,NA,NA,NA,NA,NA,NA,NA,NA,NA,NA,NA,NA,NA,NA,NA,NA,NA,NA,NA,NA,NA,NA,NA,NA,NA,NA,NA,NA,NA,NA,NA,NA,NA,NA,NA,NA,NA,NA,NA,NA,NA,NA,NA,NA,NA,NA,NA,NA,NA,NA,NA,NA,04,0.4216595,1714.1639,0.42500001,4810.166
0406580,-109.91,34.166,Blue Ridge Unified School District No. 32,AZ,ARIZONA,0.108,0.431,-0.527,0.329,-0.419,0.349,-0.223,0.549,-1.11,0.422,-1.34,0.448,NA,NA,NA,NA,NA,NA,NA,NA,NA,NA,NA,NA,NA,NA,NA,NA,NA,NA,NA,NA,NA,NA,NA,NA,NA,NA,NA,NA,NA,NA,NA,NA,NA,NA,NA,NA,NA,NA,NA,NA,NA,NA,NA,NA,NA,NA,NA,NA,NA,NA,NA,NA,NA,NA,NA,NA,NA,NA,NA,NA,04,0.48917684,2636.0764,0.2,5059.811
0406730,-112.444,34.56,Prescott Unified District,AZ,ARIZONA,-0.358,0.38,0.791,0.279,0.433,0.3,-0.526,0.504,0.238,0.377,-0.288,0.402,NA,NA,NA,NA,NA,NA,NA,NA,NA,NA,NA,NA,NA,NA,NA,NA,NA,NA,NA,NA,NA,NA,NA,NA,NA,NA,NA,NA,NA,NA,NA,NA,NA,NA,NA,NA,NA,NA,NA,NA,NA,NA,NA,NA,NA,NA,NA,NA,-0.189,0.371,1.08,0.282,0.89,0.308,-0.43,0.453,0.514,0.34,0.084,0.365,04,0.29718897,1094.2428,0.075000003,3962.384
0406810,-111.626,33.287,Queen Creek Unified District,AZ,ARIZONA,0.07,0.34,0.896,0.254,0.966,0.254,-0.266,0.48,1.24,0.361,0.969,0.373,NA,NA,NA,NA,NA,NA,NA,NA,NA,NA,NA,NA,NA,NA,NA,NA,NA,NA,NA,NA,NA,NA,NA,NA,-0.012,0.364,0.177,0.293,0.165,0.275,-0.457,0.507,0.449,0.386,-0.008,0.382,NA,NA,NA,NA,NA,NA,NA,NA,NA,NA,NA,NA,0.132,0.327,1.18,0.251,1.31,0.252,-0.176,0.423,1.53,0.319,1.35,0.331,04,0.22181749,479.4791,0,3596.4192
0407080,-112.077,33.383,Roosevelt Elementary District,AZ,ARIZONA,0.154,0.356,-2.47,0.26,-2.31,0.278,-0.705,0.499,-2.25,0.368,-2.95,0.401,NA,NA,NA,NA,NA,NA,NA,NA,NA,NA,NA,NA,NA,NA,NA,NA,NA,NA,NA,NA,NA,NA,NA,NA,0.081,0.312,-2.44,0.226,-2.36,0.248,-0.666,0.491,-2.16,0.357,-2.83,0.384,NA,NA,NA,NA,NA,NA,NA,NA,NA,NA,NA,NA,NA,NA,NA,NA,NA,NA,NA,NA,NA,NA,NA,NA,04,0.85873145,4993.0229,0.40000001,4888.5684
0407130,-109.288,34.147,Round Valley Unified District,AZ,ARIZONA,-0.105,0.47,-0.268,0.359,-0.373,0.395,-0.533,0.543,-0.264,0.405,-0.797,0.451,NA,NA,NA,NA,NA,NA,NA,NA,NA,NA,NA,NA,NA,NA,NA,NA,NA,NA,NA,NA,NA,NA,NA,NA,NA,NA,NA,NA,NA,NA,NA,NA,NA,NA,NA,NA,NA,NA,NA,NA,NA,NA,NA,NA,NA,NA,NA,NA,NA,NA,NA,NA,NA,NA,NA,NA,NA,NA,NA,NA,04,0.38731745,2119.2898,0,4482.2222
0407170,-112.888,33.508,Saddle Mountain Unified School District,AZ,ARIZONA,-0.185,0.436,-1.35,0.336,-1.54,0.347,-1.05,0.525,-0.221,0.394,-1.27,0.427,NA,NA,NA,NA,NA,NA,NA,NA,NA,NA,NA,NA,NA,NA,NA,NA,NA,NA,NA,NA,NA,NA,NA,NA,0.119,0.457,-1.99,0.377,-1.87,0.369,-0.993,0.57,-0.668,0.433,-1.66,0.455,NA,NA,NA,NA,NA,NA,NA,NA,NA,NA,NA,NA,NA,NA,NA,NA,NA,NA,NA,NA,NA,NA,NA,NA,04,0.62582278,953.10486,0.30000001,4517.3384
0407240,-109.725,33.155,Safford Unified District,AZ,ARIZONA,0.118,0.394,-0.338,0.294,-0.22,0.31,-0.403,0.511,0.088,0.385,-0.315,0.409,NA,NA,NA,NA,NA,NA,NA,NA,NA,NA,NA,NA,NA,NA,NA,NA,NA,NA,NA,NA,NA,NA,NA,NA,0.089,0.397,-0.581,0.308,-0.492,0.326,-0.44,0.535,-0.268,0.402,-0.709,0.421,NA,NA,NA,NA,NA,NA,NA,NA,NA,NA,NA,NA,0.164,0.423,0.083,0.339,0.248,0.369,-0.303,0.505,0.573,0.381,0.27,0.43,04,0.49863902,1768.1141,0,4678.8813
0407300,-111.267,31.624,Sahuarita Unified District,AZ,ARIZONA,0.025,0.355,0.365,0.262,0.391,0.273,-0.117,0.488,0.144,0.366,0.027,0.383,NA,NA,NA,NA,NA,NA,NA,NA,NA,NA,NA,NA,NA,NA,NA,NA,NA,NA,NA,NA,NA,NA,NA,NA,0.047,0.33,-0.158,0.247,-0.111,0.26,-0.137,0.493,-0.403,0.366,-0.54,0.378,NA,NA,NA,NA,NA,NA,NA,NA,NA,NA,NA,NA,0.135,0.38,1.33,0.292,1.46,0.316,-0.004,0.459,1.02,0.345,1.01,0.373,04,0.41131303,513.48895,0.050000001,4429.3896
0407520,-111.063,31.626,Santa Cruz Valley Unified District,AZ,ARIZONA,-0.139,0.388,-1.06,0.282,-1.2,0.31,-0.9,0.51,-0.916,0.382,-1.82,0.41,NA,NA,NA,NA,NA,NA,NA,NA,NA,NA,NA,NA,NA,NA,NA,NA,NA,NA,NA,NA,NA,NA,NA,NA,-0.119,0.342,-1.11,0.25,-1.22,0.276,-0.879,0.503,-0.941,0.371,-1.82,0.391,NA,NA,NA,NA,NA,NA,NA,NA,NA,NA,NA,NA,NA,NA,NA,NA,NA,NA,NA,NA,NA,NA,NA,NA,04,0.84653121,1824.0592,0.47499999,4022.8169
0407570,-111.943,33.542,Scottsdale Unified District,AZ,ARIZONA,0.115,0.331,1.53,0.243,1.65,0.251,-0.211,0.477,1.57,0.356,1.36,0.372,NA,NA,NA,NA,NA,NA,NA,NA,NA,NA,NA,NA,NA,NA,NA,NA,NA,NA,NA,NA,NA,NA,NA,NA,0.242,0.319,-0.184,0.237,0.058,0.249,-0.21,0.493,-0.217,0.364,-0.427,0.381,NA,NA,NA,NA,NA,NA,NA,NA,NA,NA,NA,NA,0.072,0.317,2.22,0.237,2.29,0.248,-0.148,0.418,2.26,0.312,2.11,0.329,04,0.23893578,849.60974,0,4713.6992
0407700,-110.1,34.297,Show Low Unified District,AZ,ARIZONA,0.114,0.415,-0.445,0.31,-0.332,0.335,-0.409,0.515,-0.212,0.386,-0.621,0.414,NA,NA,NA,NA,NA,NA,NA,NA,NA,NA,NA,NA,NA,NA,NA,NA,NA,NA,NA,NA,NA,NA,NA,NA,NA,NA,NA,NA,NA,NA,NA,NA,NA,NA,NA,NA,NA,NA,NA,NA,NA,NA,NA,NA,NA,NA,NA,NA,0.067,0.4,-0.119,0.31,-0.051,0.343,-0.381,0.469,0.02,0.354,-0.361,0.386,04,0.48569122,2457.6589,0,4477.5171
0407750,-112.13,33.833,Deer Valley Unified District,AZ,ARIZONA,0.165,0.324,1.17,0.237,1.34,0.245,-0.166,0.472,1.1,0.353,0.935,0.368,NA,NA,NA,NA,NA,NA,NA,NA,NA,NA,NA,NA,NA,NA,NA,NA,NA,NA,NA,NA,NA,NA,NA,NA,0.113,0.3,0.009,0.221,0.122,0.232,-0.268,0.474,-0.02,0.35,-0.288,0.361,NA,NA,NA,NA,NA,NA,NA,NA,NA,NA,NA,NA,0.168,0.308,1.57,0.23,1.74,0.239,-0.11,0.411,1.46,0.306,1.35,0.321,04,0.27386066,984.11688,0.050000001,5237.6968
0407820,-110.109,34.513,Snowflake Unified District,AZ,ARIZONA,0.532,0.391,0.599,0.294,1.13,0.303,-0.253,0.509,1.46,0.388,1.2,0.401,NA,NA,NA,NA,NA,NA,NA,NA,NA,NA,NA,NA,NA,NA,NA,NA,NA,NA,NA,NA,NA,NA,NA,NA,NA,NA,NA,NA,NA,NA,NA,NA,NA,NA,NA,NA,NA,NA,NA,NA,NA,NA,NA,NA,NA,NA,NA,NA,0.496,0.377,1,0.296,1.5,0.306,-0.246,0.465,1.85,0.358,1.6,0.371,04,0.41529408,2287.4248,0,4076.6255
0407890,-114.679,32.514,Somerton Elementary District,AZ,ARIZONA,0.048,0.382,-1.11,0.284,-1.07,0.299,-0.89,0.507,-0.318,0.38,-1.21,0.405,NA,NA,NA,NA,NA,NA,NA,NA,NA,NA,NA,NA,NA,NA,NA,NA,NA,NA,NA,NA,NA,NA,NA,NA,0.032,0.334,-1.11,0.25,-1.07,0.266,-0.917,0.5,-0.301,0.37,-1.22,0.386,NA,NA,NA,NA,NA,NA,NA,NA,NA,NA,NA,NA,NA,NA,NA,NA,NA,NA,NA,NA,NA,NA,NA,NA,04,0.93329531,2766.9646,0.47499999,3942.2383
0408170,-110.914,32.107,Sunnyside Unified District,AZ,ARIZONA,-0.248,0.34,-1.75,0.247,-2,0.262,-1.05,0.486,-1.5,0.36,-2.56,0.385,NA,NA,NA,NA,NA,NA,NA,NA,NA,NA,NA,NA,NA,NA,NA,NA,NA,NA,NA,NA,NA,NA,NA,NA,-0.244,0.289,-1.74,0.209,-1.99,0.224,-1.06,0.475,-1.49,0.347,-2.55,0.366,NA,NA,NA,NA,NA,NA,NA,NA,NA,NA,NA,NA,NA,NA,NA,NA,NA,NA,NA,NA,NA,NA,NA,NA,04,0.8070159,3415.564,0.40000001,4107.3672
0408280,-110.709,32.275,Tanque Verde Unified District,AZ,ARIZONA,0.449,0.396,1.26,0.298,1.71,0.309,0.142,0.505,0.861,0.38,1,0.401,NA,NA,NA,NA,NA,NA,NA,NA,NA,NA,NA,NA,NA,NA,NA,NA,NA,NA,NA,NA,NA,NA,NA,NA,NA,NA,NA,NA,NA,NA,NA,NA,NA,NA,NA,NA,NA,NA,NA,NA,NA,NA,NA,NA,NA,NA,NA,NA,0.5,0.387,1.54,0.305,2.04,0.319,0.281,0.458,1.07,0.347,1.35,0.37,04,0.12410842,440.01169,0.050000001,4374.312
0408310,-111.935,33.405,Tempe School District,AZ,ARIZONA,-0.15,0.338,-0.806,0.245,-0.957,0.26,-0.859,0.482,-0.847,0.358,-1.71,0.38,0.218,0.169,-1.9,0.297,-1.68,0.292,-0.611,0.353,-2.04,0.337,-2.65,0.403,NA,NA,NA,NA,NA,NA,NA,NA,NA,NA,NA,NA,-0.163,0.297,-1.23,0.215,-1.39,0.232,-0.866,0.479,-1.17,0.35,-2.04,0.371,NA,NA,NA,NA,NA,NA,NA,NA,NA,NA,NA,NA,0.006,0.371,1.36,0.28,1.36,0.308,-0.422,0.455,0.976,0.339,0.555,0.37,04,0.65252239,1848.7003,0.40000001,4742.8594
0408410,-109.769,32.765,Thatcher Unified District,AZ,ARIZONA,-0.143,0.412,0.353,0.315,0.21,0.322,0.064,0.523,0.512,0.402,0.576,0.417,NA,NA,NA,NA,NA,NA,NA,NA,NA,NA,NA,NA,NA,NA,NA,NA,NA,NA,NA,NA,NA,NA,NA,NA,NA,NA,NA,NA,NA,NA,NA,NA,NA,NA,NA,NA,NA,NA,NA,NA,NA,NA,NA,NA,NA,NA,NA,NA,-0.063,0.399,0.763,0.319,0.7,0.333,0.044,0.482,0.986,0.372,1.03,0.394,04,0.34114286,1207.4198,0,3853.4819
0408490,-112.257,33.454,Tolleson Elementary District,AZ,ARIZONA,-0.06,0.404,-1.6,0.283,-1.65,0.339,-0.304,0.508,-1.48,0.383,-1.78,0.406,NA,NA,NA,NA,NA,NA,NA,NA,NA,NA,NA,NA,NA,NA,NA,NA,NA,NA,NA,NA,NA,NA,NA,NA,-0.05,0.369,-1.66,0.262,-1.71,0.316,-0.213,0.51,-1.54,0.379,-1.75,0.396,NA,NA,NA,NA,NA,NA,NA,NA,NA,NA,NA,NA,NA,NA,NA,NA,NA,NA,NA,NA,NA,NA,NA,NA,04,0.84770298,1800.457,0.42500001,4518.1069
0408550,-111.634,32.769,Toltec School District,AZ,ARIZONA,0.01,0.489,-2.42,0.392,-2.41,0.404,-0.539,0.682,-2.49,0.477,-3.03,0.684,NA,NA,NA,NA,NA,NA,NA,NA,NA,NA,NA,NA,NA,NA,NA,NA,NA,NA,NA,NA,NA,NA,NA,NA,NA,NA,NA,NA,NA,NA,NA,NA,NA,NA,NA,NA,NA,NA,NA,NA,NA,NA,NA,NA,NA,NA,NA,NA,NA,NA,NA,NA,NA,NA,NA,NA,NA,NA,NA,NA,04,0.69491529,2534.8757,0.69999999,3902.6975
0408800,-110.838,32.228,Tucson Unified District,AZ,ARIZONA,-0.112,0.327,-1.51,0.238,-1.62,0.249,-0.695,0.475,-1.51,0.354,-2.2,0.371,0.254,0.167,-2.53,0.314,-2.27,0.305,-0.315,0.353,-2.49,0.352,-2.81,0.387,NA,NA,NA,NA,NA,NA,NA,NA,NA,NA,NA,NA,-0.149,0.277,-1.75,0.199,-1.9,0.213,-0.689,0.464,-1.71,0.341,-2.4,0.354,NA,NA,NA,NA,NA,NA,NA,NA,NA,NA,NA,NA,0.1,0.34,-0.046,0.253,0.054,0.273,-0.573,0.434,-0.181,0.322,-0.754,0.348,04,0.60757637,3839.7109,0.69999999,4919.4199
0408820,-112.268,33.329,Union Elementary District,AZ,ARIZONA,0.102,0.416,-1.55,0.3,-1.45,0.342,-0.712,0.548,-1.84,0.415,-2.55,0.456,NA,NA,NA,NA,NA,NA,NA,NA,NA,NA,NA,NA,NA,NA,NA,NA,NA,NA,NA,NA,NA,NA,NA,NA,0.106,0.382,-1.44,0.282,-1.34,0.32,-0.691,0.559,-1.74,0.422,-2.43,0.45,NA,NA,NA,NA,NA,NA,NA,NA,NA,NA,NA,NA,NA,NA,NA,NA,NA,NA,NA,NA,NA,NA,NA,NA,04,0.86083853,1988.83,0.050000001,3884.5129
0408850,-110.721,32.025,Vail Unified School District,AZ,ARIZONA,0.003,0.337,1.81,0.249,1.81,0.255,-0.234,0.478,2.09,0.358,1.86,0.374,NA,NA,NA,NA,NA,NA,NA,NA,NA,NA,NA,NA,NA,NA,NA,NA,NA,NA,NA,NA,NA,NA,NA,NA,-0.048,0.313,1.22,0.237,1.17,0.238,-0.484,0.48,1.56,0.357,1.07,0.363,NA,NA,NA,NA,NA,NA,NA,NA,NA,NA,NA,NA,0.061,0.332,2.25,0.252,2.31,0.261,-0.104,0.428,2.55,0.319,2.44,0.339,04,0.23459557,398.42505,0.075000003,4029.8723
0409060,-112.112,33.593,Washington Elementary School District,AZ,ARIZONA,0.209,0.327,-1.21,0.239,-0.999,0.247,-0.648,0.474,-0.879,0.353,-1.53,0.37,0.358,0.165,-2.53,0.294,-2.18,0.274,-0.405,0.348,-2.5,0.327,-2.91,0.381,NA,NA,NA,NA,NA,NA,NA,NA,NA,NA,NA,NA,0.174,0.281,-1.57,0.204,-1.4,0.215,-0.694,0.464,-1.15,0.341,-1.85,0.353,NA,NA,NA,NA,NA,NA,NA,NA,NA,NA,NA,NA,0.174,0.328,0.106,0.244,0.28,0.26,-0.417,0.427,0.262,0.316,-0.155,0.341,04,0.78664601,2928.7268,0.625,4547.8398
0409190,-112.959,33.819,Wickenburg Unified District,AZ,ARIZONA,-0.236,0.492,-0.56,0.36,-0.795,0.437,-0.528,0.547,-0.058,0.412,-0.586,0.452,NA,NA,NA,NA,NA,NA,NA,NA,NA,NA,NA,NA,NA,NA,NA,NA,NA,NA,NA,NA,NA,NA,NA,NA,NA,NA,NA,NA,NA,NA,NA,NA,NA,NA,NA,NA,NA,NA,NA,NA,NA,NA,NA,NA,NA,NA,NA,NA,NA,NA,NA,NA,NA,NA,NA,NA,NA,NA,NA,NA,04,0.4616856,1566.0669,0,4246.6431
0409390,-112.026,33.435,Wilson Elementary District,AZ,ARIZONA,-0.148,0.469,-1.72,0.351,-1.87,0.401,-1.12,0.561,-1.25,0.418,-2.38,0.476,NA,NA,NA,NA,NA,NA,NA,NA,NA,NA,NA,NA,NA,NA,NA,NA,NA,NA,NA,NA,NA,NA,NA,NA,-0.252,0.422,-1.59,0.324,-1.84,0.361,-1.2,0.566,-1.12,0.412,-2.32,0.47,NA,NA,NA,NA,NA,NA,NA,NA,NA,NA,NA,NA,NA,NA,NA,NA,NA,NA,NA,NA,NA,NA,NA,NA,04,0.99002445,NA,0.62139916,6005.1504
0409430,-109.171,35.564,Window Rock Unified District,AZ,ARIZONA,-0.026,0.487,-2.05,0.344,-2.07,0.427,-0.596,0.563,-1.95,0.427,-2.55,0.48,NA,NA,NA,NA,NA,NA,NA,NA,NA,NA,NA,NA,NA,NA,NA,NA,NA,NA,NA,NA,NA,NA,NA,NA,NA,NA,NA,NA,NA,NA,NA,NA,NA,NA,NA,NA,NA,NA,NA,NA,NA,NA,NA,NA,NA,NA,NA,NA,NA,NA,NA,NA,NA,NA,NA,NA,NA,NA,NA,NA,04,0.87573719,4755.3057,1,7364.9976
0409460,-110.594,35.326,Winslow Unified District,AZ,ARIZONA,0.259,0.421,-1.26,0.313,-1,0.341,-0.796,0.531,-0.382,0.392,-1.18,0.439,NA,NA,NA,NA,NA,NA,NA,NA,NA,NA,NA,NA,NA,NA,NA,NA,NA,NA,NA,NA,NA,NA,NA,NA,NA,NA,NA,NA,NA,NA,NA,NA,NA,NA,NA,NA,NA,NA,NA,NA,NA,NA,NA,NA,NA,NA,NA,NA,NA,NA,NA,NA,NA,NA,NA,NA,NA,NA,NA,NA,04,0.68232858,3272.1968,0,4543.5645
0409600,-113.57,32.36,Yuma Elementary District,AZ,ARIZONA,0.038,0.341,-1.09,0.251,-1.05,0.26,-0.602,0.484,-1.02,0.362,-1.62,0.38,NA,NA,NA,NA,NA,NA,NA,NA,NA,NA,NA,NA,NA,NA,NA,NA,NA,NA,NA,NA,NA,NA,NA,NA,0.191,0.299,-1.5,0.222,-1.31,0.228,-0.51,0.482,-1.42,0.358,-1.93,0.37,NA,NA,NA,NA,NA,NA,NA,NA,NA,NA,NA,NA,-0.049,0.371,0.198,0.278,0.149,0.31,-0.544,0.454,0.162,0.342,-0.383,0.366,04,0.72076946,2056.0073,0.55000001,3654.9006
0500001,-91.292,34.254,Dewitt School District,AR,ARKANSAS,-0.226,0.41,-0.195,0.372,-0.422,0.381,-0.68,0.432,-0.085,0.413,-0.765,0.42,NA,NA,NA,NA,NA,NA,NA,NA,NA,NA,NA,NA,NA,NA,NA,NA,NA,NA,NA,NA,NA,NA,NA,NA,NA,NA,NA,NA,NA,NA,NA,NA,NA,NA,NA,NA,NA,NA,NA,NA,NA,NA,NA,NA,NA,NA,NA,NA,NA,NA,NA,NA,NA,NA,NA,NA,NA,NA,NA,NA,05,0.60606056,2188.8938,0,5844.8979
0500006,-92.074,33.617,Warren School District,AR,ARKANSAS,0.076,0.411,-2.03,0.382,-1.95,0.375,-0.626,0.425,-1.47,0.394,-2.1,0.408,NA,NA,NA,NA,NA,NA,NA,NA,NA,NA,NA,NA,NA,NA,NA,NA,NA,NA,NA,NA,NA,NA,NA,NA,NA,NA,NA,NA,NA,NA,NA,NA,NA,NA,NA,NA,NA,NA,NA,NA,NA,NA,NA,NA,NA,NA,NA,NA,NA,NA,NA,NA,NA,NA,NA,NA,NA,NA,NA,NA,05,0.72812968,2709.7969,0,5801.79
0500015,-92.389,34.287,Sheridan School District,AR,ARKANSAS,-0.357,0.363,-0.063,0.304,-0.42,0.306,-0.717,0.403,-0.321,0.359,-1.04,0.366,NA,NA,NA,NA,NA,NA,NA,NA,NA,NA,NA,NA,NA,NA,NA,NA,NA,NA,NA,NA,NA,NA,NA,NA,NA,NA,NA,NA,NA,NA,NA,NA,NA,NA,NA,NA,NA,NA,NA,NA,NA,NA,NA,NA,NA,NA,NA,NA,NA,NA,NA,NA,NA,NA,NA,NA,NA,NA,NA,NA,05,0.46559578,1144.9526,0.025,4753.606
0500017,-90.504,36.118,Paragould School District,AR,ARKANSAS,-0.484,0.382,-0.346,0.335,-0.83,0.33,-0.814,0.412,-0.42,0.373,-1.23,0.382,NA,NA,NA,NA,NA,NA,NA,NA,NA,NA,NA,NA,NA,NA,NA,NA,NA,NA,NA,NA,NA,NA,NA,NA,NA,NA,NA,NA,NA,NA,NA,NA,NA,NA,NA,NA,NA,NA,NA,NA,NA,NA,NA,NA,NA,NA,NA,NA,NA,NA,NA,NA,NA,NA,NA,NA,NA,NA,NA,NA,05,0.65175587,2068.9063,0,5186.7896
0500019,-91.758,35.814,Batesville School District,AR,ARKANSAS,-0.238,0.379,-0.563,0.331,-0.801,0.323,-0.648,0.411,-0.781,0.371,-1.43,0.376,NA,NA,NA,NA,NA,NA,NA,NA,NA,NA,NA,NA,NA,NA,NA,NA,NA,NA,NA,NA,NA,NA,NA,NA,NA,NA,NA,NA,NA,NA,NA,NA,NA,NA,NA,NA,NA,NA,NA,NA,NA,NA,NA,NA,NA,NA,NA,NA,NA,NA,NA,NA,NA,NA,NA,NA,NA,NA,NA,NA,05,0.51967704,1580.9357,0,4722.6128
0500026,-91.931,34.169,Pine Bluff School District,AR,ARKANSAS,0.109,0.404,-3.53,0.377,-3.42,0.356,-0.632,0.41,-3.53,0.366,-4.16,0.377,NA,NA,NA,NA,NA,NA,NA,NA,NA,NA,NA,NA,NA,NA,NA,NA,NA,NA,NA,NA,NA,NA,NA,NA,NA,NA,NA,NA,NA,NA,NA,NA,NA,NA,NA,NA,NA,NA,NA,NA,NA,NA,NA,NA,NA,NA,NA,NA,NA,NA,NA,NA,NA,NA,NA,NA,NA,NA,NA,NA,05,0.77905512,NA,0,6510.6245
0500029,-90.063,35.885,Gosnell School District,AR,ARKANSAS,-0.23,0.411,-0.245,0.368,-0.475,0.386,-0.385,0.432,-0.082,0.407,-0.467,0.412,NA,NA,NA,NA,NA,NA,NA,NA,NA,NA,NA,NA,NA,NA,NA,NA,NA,NA,NA,NA,NA,NA,NA,NA,NA,NA,NA,NA,NA,NA,NA,NA,NA,NA,NA,NA,NA,NA,NA,NA,NA,NA,NA,NA,NA,NA,NA,NA,NA,NA,NA,NA,NA,NA,NA,NA,NA,NA,NA,NA,05,0.72178686,NA,0,6069.1357
0500042,-91.678,33.17,Hamburg School District,AR,ARKANSAS,-0.132,0.396,-0.83,0.344,-0.961,0.355,-0.526,0.418,-0.944,0.38,-1.47,0.391,NA,NA,NA,NA,NA,NA,NA,NA,NA,NA,NA,NA,NA,NA,NA,NA,NA,NA,NA,NA,NA,NA,NA,NA,NA,NA,NA,NA,NA,NA,NA,NA,NA,NA,NA,NA,NA,NA,NA,NA,NA,NA,NA,NA,NA,NA,NA,NA,NA,NA,NA,NA,NA,NA,NA,NA,NA,NA,NA,NA,05,0.65717357,2074.7834,0,5430.8281
0500043,-92.358,36.39,Mountain Home School District,AR,ARKANSAS,-0.164,0.365,-0.031,0.309,-0.195,0.307,-0.426,0.408,-0.049,0.366,-0.476,0.373,NA,NA,NA,NA,NA,NA,NA,NA,NA,NA,NA,NA,NA,NA,NA,NA,NA,NA,NA,NA,NA,NA,NA,NA,NA,NA,NA,NA,NA,NA,NA,NA,NA,NA,NA,NA,NA,NA,NA,NA,NA,NA,NA,NA,NA,NA,NA,NA,NA,NA,NA,NA,NA,NA,NA,NA,NA,NA,NA,NA,05,0.48080859,1692.5427,0,5176.1021
0500044,-93.27,33.315,Magnolia School District,AR,ARKANSAS,-0.458,0.393,-1.14,0.339,-1.6,0.352,-0.611,0.413,-1.29,0.375,-1.9,0.38,NA,NA,NA,NA,NA,NA,NA,NA,NA,NA,NA,NA,NA,NA,NA,NA,NA,NA,NA,NA,NA,NA,NA,NA,NA,NA,NA,NA,NA,NA,NA,NA,NA,NA,NA,NA,NA,NA,NA,NA,NA,NA,NA,NA,NA,NA,NA,NA,NA,NA,NA,NA,NA,NA,NA,NA,NA,NA,NA,NA,05,0.7211777,3351.2075,0,5654.2324
0500047,-90.54,35.638,Trumann School District,AR,ARKANSAS,-0.203,0.41,-1.54,0.37,-1.75,0.389,-0.618,0.425,-1.73,0.395,-2.35,0.406,NA,NA,NA,NA,NA,NA,NA,NA,NA,NA,NA,NA,NA,NA,NA,NA,NA,NA,NA,NA,NA,NA,NA,NA,NA,NA,NA,NA,NA,NA,NA,NA,NA,NA,NA,NA,NA,NA,NA,NA,NA,NA,NA,NA,NA,NA,NA,NA,NA,NA,NA,NA,NA,NA,NA,NA,NA,NA,NA,NA,05,0.71744263,3662.2434,0,5587.8159
0500049,-94.365,34.088,Dequeen School District,AR,ARKANSAS,-0.224,0.369,0.504,0.311,0.28,0.313,-0.684,0.412,0.405,0.373,-0.279,0.377,NA,NA,NA,NA,NA,NA,NA,NA,NA,NA,NA,NA,NA,NA,NA,NA,NA,NA,NA,NA,NA,NA,NA,NA,NA,NA,NA,NA,NA,NA,NA,NA,NA,NA,NA,NA,NA,NA,NA,NA,NA,NA,NA,NA,NA,NA,NA,NA,NA,NA,NA,NA,NA,NA,NA,NA,NA,NA,NA,NA,05,0.73911238,3111.5859,0,5840.0503
